bookkeeping,child_dialect_count,child_family_count,child_language_count,description,family_pk,father_pk,hid,id,jsondata,latitude,level,longitude,markup_description,name,newick,pk,status
False,0,0,0,,202,2656,aiw,aari1239,{},5.95034,language,36.5721,,Aari,'Aari [aari1239][aiw]-l-':1,4424,safe
True,0,0,0,,120,120,aay,aari1240,{},,language,,,Aariya,'Aariya [aari1240][aay]-l-':1,1134,safe
False,0,0,0,,376,4943,aas,aasa1238,{},-4.00679,language,36.8648,,Aasax,'Aasax [aasa1238][aas]-l-':1,7144,extinct
False,0,0,0,,21,19351,kbt,abad1241,{},-9.03389,language,146.992,,Abadi,'Abadi [abad1241][kbt]-l-':1,20702,safe
False,0,0,0,,50,10771,abg,abag1245,{},-6.12028,language,145.665,,Abaga,'Abaga [abag1245][abg]-l-':1,13588,critically endangered
False,0,0,0,,21,10593,abf,abai1240,{},5.55394,language,118.306,,Abai Sungai,'Abai Sungai [abai1240][abf]-l-':1,13413,definitely endangered
False,0,0,0,,21,10589,NOCODE_Abai-Tubu-Sembuak,abai1241,{},,language,,,Abai Tubu-Abai Sembuak,'Abai Tubu-Abai Sembuak [abai1241]-l-':1,13401,safe
False,0,0,0,,10,17246,abm,aban1242,{},6.30619,language,8.63055,,Abanyom,'Abanyom [aban1242][abm]-l-':1,18795,safe
False,0,0,0,,10,5196,mij,abar1238,{},6.5805,language,10.2267,,Mungbam,'Mungbam [abar1238][mij]-l-':1,7603,safe
False,0,0,0,,142,142,aau,abau1245,{},-3.97222,language,141.324,,Abau,'Abau [abau1245][aau]-l-':1,1214,safe
False,3,0,0,,351,1603,abq,abaz1241,{},41.1214,language,42.7273,,Abaza,"('Ashkaraua [ashk1247]':1,'Bezshagh [bezs1238]':1,'Tapanta [tapa1256]':1)'Abaza [abaz1241][abq]-l-':1",3003,definitely endangered
False,4,0,0,,10,5211,aba,abee1242,{},5.59682,language,-4.38497,,Abé,"('Abbey-Ve [abbe1238]':1,'Kos [koss1238]':1,'Morie [mori1266]':1,'Tioffo [tiof1238]':1)'Abé [abee1242][aba]-l-':1",7635,safe
False,0,0,0,,21,7802,abp,aben1249,{},15.4131,language,120.2,,Abenlen Ayta,'Abenlen Ayta [aben1249][abp]-l-':1,10439,safe
False,2,0,0,,10,5211,abi,abid1235,{},5.65656,language,-4.58421,,Abidji,"('Enyembe [enye1238]':1,'Ogbru [ogbr1242]':1)'Abidji [abid1235][abi]-l-':1",7634,safe
False,0,0,0,,,,bsa,abin1243,{},-2.92281,language,138.891,,Abinomn,'Abinomn [abin1243][bsa]-l-':1,255,safe
False,0,0,0,,41,615,axb,abip1241,{},-29.0,language,-61.0,,Abipon,'Abipon [abip1241][axb]-l-':1,2003,extinct
False,0,0,0,,,,ash,abis1238,{},-0.69386,language,-75.2183,,Aewa,'Aewa [abis1238][ash]-l-':1,341,extinct
False,3,0,0,,351,1603,abk,abkh1244,{},43.056218,language,41.159115,,Abkhazian,"('Abzhui [abzh1238]':1,'Bzyb [bzyb1238]':1,'Samurzakan [samu1242]':1)'Abkhazian [abkh1244][abk]-l-':1",3002,vulnerable
False,0,0,0,,201,1347,aob,abom1238,{},-8.42448,language,142.842,,Abom,'Abom [abom1238][aob]-l-':1,2654,safe
False,0,0,0,,10,10171,abo,abon1238,{},6.90621,language,10.8769,,Abon,'Abon [abon1238][abo]-l-':1,12845,safe
False,0,0,0,,10,12970,abr,abro1238,{},7.72094,language,-2.50289,,Abron,'Abron [abro1238][abr]-l-':1,15585,safe
False,4,0,0,,10,7522,abn,abua1244,{},4.83057,language,6.61492,,Abua,"('Central Abuan [cent2029]':1,'Emughan [emug1238]':1,'Okpeden [okpe1247]':1,'Otapha [otap1238]':1)'Abua [abua1244][abn]-l-':1",10054,safe
False,0,0,0,,353,6914,aah,abua1245,{},,language,,,Abu' Arapesh,'Abu' Arapesh [abua1245][aah]-l-':1,9366,safe
False,3,0,0,,192,2552,abz,abui1241,{},-8.31058,language,124.588,,Abui,"('Alakaman [alak1254]':1,'Atimelang [atim1239]':1,'Kobola [kobo1247]':1)'Abui [abui1241][abz]-l-':1",4325,safe
False,3,0,0,,,,kgr,abun1252,{},-0.57073,language,132.416,,Abun,"('Abun Je [abun1253]':1,'Abun Ji [abun1255]':1,'Abun Tat [abun1254]':1)'Abun [abun1252][kgr]-l-':1",176,safe
False,0,0,0,,10,10231,abu,abur1243,{},5.21534,language,-3.64123,,Abure,'Abure [abur1243][abu]-l-':1,12968,safe
False,0,0,0,,10,7521,mgj,abur1244,{},4.62301,language,6.50634,,Abureni,'Abureni [abur1244][mgj]-l-':1,10050,safe
False,3,0,0,,264,1468,ado,abuu1241,{},-4.24027,language,144.474,,Abu,"('Auwa [auwa1242]':1,'Nuclear Abu [nucl1640]':1,'Sabu {Papua New Guinea} [sabu1256]':1)'Abu [abuu1241][ado]-l-':1",2817,safe
False,3,0,0,,383,7228,tpx,acat1239,{},17.1034,language,-99.0602,,Acatepec Me'phaa,"('Acatepec [acat1240]':1,'Platanillo [plat1255]':1,'Zapotitlán Tablas [zapo1435]':1)'Acatepec Me'phaa [acat1239][tpx]-l-':1",9676,safe
False,3,0,0,,151,11639,acn,acha1249,{},24.3479,language,97.7438,,Longchuan Achang,"('Longchuan [long1373]':1,'Maingtha [main1270]':1,'Xiandao [xian1249][xia]':1)'Longchuan Achang [acha1249][acn]-l-':1",14449,safe
False,0,0,0,,79,8322,aca,acha1250,{},4.38649,language,-72.2005,,Achagua,'Achagua [acha1250][aca]-l-':1,10978,severely endangered
False,0,0,0,,151,11612,yif,ache1244,{},24.152,language,102.446,,Ache,'Ache [ache1244][yif]-l-':1,14415,safe
False,2,0,0,,51,2042,acz,ache1245,{},10.8827,language,30.3187,,Acheron,"('Eastern Acheron [east2430]':1,'Western Acheron [west2504]':1)'Acheron [ache1245][acz]-l-':1",3713,severely endangered
False,0,0,0,,298,6770,guq,ache1246,{},-25.5865,language,-56.4697,,Aché,'Aché [ache1246][guq]-l-':1,9293,definitely endangered
False,0,0,0,,304,9317,acr,achi1256,{},15.073,language,-90.3513,,Achi,'Achi [achi1256][acr]-l-':1,12064,vulnerable
False,7,0,0,,21,7886,ace,achi1257,{},3.90757,language,96.6032,,Achinese,"('Banda Aceh [band1356]':1,'Baruh [baru1270]':1,'Bueng [buen1246]':1,'Daja {Indonesia} [daja1241]':1,'Pase [pase1241]':1,'Pidie [pidi1241]':1,'Tunong [tuno1237]':1)'Achinese [achi1257][ace]-l-':1",10622,safe
True,0,0,0,,120,120,acc,achi1258,{},,language,,,"Achi', Cubulco",'Achi'/ Cubulco [achi1258][acc]-l-':1,882,safe
False,0,0,0,,89,13717,act,acht1238,{},52.021,language,6.47521,,Achterhoeks,'Achterhoeks [acht1238][act]-l-':1,16114,vulnerable
False,0,0,0,,45,45,acv,achu1247,{},41.0979,language,-121.191,,Achumawi,'Achumawi [achu1247][acv]-l-':1,620,critically endangered
False,2,0,0,,391,1739,acu,achu1248,{},-2.82646,language,-77.2641,,Achuar-Shiwiar,"('Achuar [achu1249]':1,'Shiwiar [shiw1235]':1)'Achuar-Shiwiar [achu1248][acu]-l-':1",3277,definitely endangered
False,3,0,0,,429,5129,ach,acol1236,{},3.57738,language,32.5147,,Acoli,"('Dhopaluo [dhop1238]':1,'Labwor [labw1238][lth]':1,'Nyakwai [nyak1263]':1)'Acoli [acol1236][ach]-l-':1",7417,safe
False,0,0,0,,58,2076,acs,acro1239,{},-12.594,language,-40.21445,,Acroá,'Acroá [acro1239][acs]-l-':1,3739,extinct
True,1,0,0,,120,120,adb,adab1235,{},-8.22674,language,125.576,,Adabe,('Munaseli Pandai [muna1238]':1)'Adabe [adab1235][adb]-l-':1,1158,vulnerable
False,0,0,0,,,,xad,adai1235,{},31.6314,language,-92.0059,,Adai,'Adai [adai1235][xad]-l-':1,276,extinct
False,0,0,0,,193,1329,ads,adam1238,{},5.834,language,-0.151,,Adamorobe Sign Language,'Adamorobe Sign Language [adam1238][ads]-l-':1,2599,safe
False,7,0,0,,10,7695,fub,adam1253,{},8.140326,language,13.077338,,Adamawa Fulfulde,"('Bilkire Fulani [bilk1238]':1,'Garoua [garo1248]':1,'Gombe [gomb1248]':1,'Kambariire [kamb1295]':1,'Maroua Fulfulde [maro1243]':1,'Ngaondéré [ngao1243]':1,'Nomadic Fulfulde [noma1259]':1)'Adamawa Fulfulde [adam1253][fub]-l-':1",10333,safe
False,6,0,0,,10,3455,ada,adan1247,{},5.9437,language,0.13243,,Adangme,"('Ada [adaa1238]':1,'Gbugbla [gbug1238]':1,'Krobo [krob1243]':1,'Ningo [ning1270]':1,'Osu [osuu1238]':1,'Shai [shai1238]':1)'Adangme [adan1247][ada]-l-':1",5204,safe
False,0,0,0,,10,5215,adq,adan1248,{},6.50546,language,0.727155,,Adangbe,'Adangbe [adan1248][adq]-l-':1,7664,safe
False,1,0,0,,192,9124,adn,adan1251,{},-8.18958,language,124.448,,Adang,('Aimoli [aimo1245]':1)'Adang [adan1251][adn]-l-':1,12000,safe
True,0,0,0,,120,120,adp,adap1234,{},27.141,language,90.3369,,Adap,'Adap [adap1234][adp]-l-':1,904,safe
False,2,0,0,,21,7821,tiu,adas1235,{},17.8187,language,120.905,,Adasen,"('Eastern Addasen [east2476]':1,'Western Addasen [west2551]':1)'Adasen [adas1235][tiu]-l-':1",10490,safe
False,2,0,0,,10,5202,ade,adel1244,{},8.16975,language,0.619185,,Adele,"('Lower Adele [lowe1404]':1,'Upper Adele [uppe1417]':1)'Adele [adel1244][ade]-l-':1",7614,safe
False,0,0,0,,89,11291,NOCODE_Adhari,adha1238,{},,language,,,Adhari,'Adhari [adha1238]-l-':1,14152,extinct
False,0,0,0,,429,9847,adh,adho1243,{},0.73235,language,34.0341,,Adhola,'Adhola [adho1243][adh]-l-':1,12523,safe
False,0,0,0,,10,5211,adj,adio1239,{},5.38228,language,-4.52522,,Adioukrou,'Adioukrou [adio1239][adj]-l-':1,7633,safe
False,0,0,0,,89,8445,ort,adiv1239,{},18.1046,language,82.8487,,Kotia-Adivasi Oriya-Desiya,'Kotia-Adivasi Oriya-Desiya [adiv1239][ort]-l-':1,11114,safe
False,0,0,0,,89,11169,gas,adiw1235,{},24.0712,language,73.1426,,Adiwasi Garasia,'Adiwasi Garasia [adiw1235][gas]-l-':1,13993,safe
False,0,0,0,,66,5788,adt,adny1235,{},-30.1451,language,138.671,,Adnyamathanha,'Adnyamathanha [adny1235][adt]-l-':1,8248,definitely endangered
False,3,0,0,,21,17800,adr,adon1237,{},-8.32027,language,123.159,,Adonara,"('East Adonara [east2470]':1,'East Solor [east2469]':1,'West Adonara [west2544]':1)'Adonara [adon1237][adr]-l-':1",19592,safe
True,0,0,0,,120,120,adu,adug1238,{},7.64567,language,6.13085,,Aduge,'Aduge [adug1238][adu]-l-':1,788,safe
False,0,0,0,,134,1204,NOCODE_Adurgari,adur1234,{},,language,,,Adurgari,'Adurgari [adur1234]-l-':1,2359,safe
False,5,0,0,,351,1601,ady,adyg1241,{},44.0,language,39.33,,Adyghe,"('Abadzex [abad1240]':1,'Bezhedukh [bezh1247]':1,'Natuzaj [natu1243]':1,'Shapsug [shap1240]':1,'Xakuchi [xaku1238]':1)'Adyghe [adyg1241][ady]-l-':1",3001,vulnerable
False,0,0,0,,21,19400,adz,adze1240,{},-6.39394,language,146.294,,Adzera,'Adzera [adze1240][adz]-l-':1,20781,safe
True,0,0,0,,120,120,,adze1241,{},,language,,,Adzera (Retired),'Adzera {Retired} [adze1241][azr]-l-':1,1169,safe
False,0,0,0,,50,8098,aez,aeka1244,{},-8.79019,language,148.09,,Aeka,'Aeka [aeka1244][aez]-l-':1,10818,safe
False,3,0,0,,74,74,awi,aeky1238,{},-5.88478,language,141.532,,Aekyom,"('East Awin [east2522]':1,'North Awin [nort2932]':1,'South Awin [sout2952]':1)'Aekyom [aeky1238][awi]-l-':1",694,safe
False,2,0,0,,89,14015,aeq,aerr1238,{},25.254,language,69.029,,Aer,"('Jamesabad Aer [jame1238]':1,'Jikrio Goth Aer [jikr1238]':1)'Aer [aerr1238][aeq]-l-':1",16238,safe
False,0,0,0,,376,12263,aal,afad1236,{},12.0551,language,14.6343,,Afade,'Afade [afad1236][aal]-l-':1,14845,safe
False,4,0,0,,376,7149,aar,afar1241,{},12.2281,language,41.8083,,Afar,"('Aussa [auss1240]':1,'Baadu [baad1239]':1,'Central Afar [cent2192]':1,'Northern Afar [nort3052]':1)'Afar [afar1241][aar]-l-':1",9535,safe
False,0,0,0,,193,1332,afg,afgh1239,{},,language,,,Afghan Sign Language,'Afghan Sign Language [afgh1239][afg]-l-':1,2606,safe
False,0,0,0,,399,1805,NOCODE_Afghanistan-Gorbati,afgh1240,{},,language,,,Afghanistan Gorbat,'Afghanistan Gorbat [afgh1240]-l-':1,3342,safe
False,0,0,0,,206,206,aft,afit1238,{},12.446,language,30.7611,,Afitti,'Afitti [afit1238][aft]-l-':1,1356,severely endangered
False,3,0,0,,89,10985,afr,afri1274,{},-22.0,language,30.0,,Afrikaans,"('Cape Afrikaans [cape1241]':1,'East Cape Afrikaans [east2693]':1,'Orange River Afrikaans [oran1263]':1)'Afrikaans [afri1274][afr]-l-':1",13720,safe
False,0,0,0,,89,22587,afs,afro1254,{},31.7843,language,-99.2934,,Afro-Seminole Creole,'Afro-Seminole Creole [afro1254][afs]-l-':1,22850,safe
False,0,0,0,,10,7503,NOCODE_Afudu,afud1235,{},,language,,,Afudu,'Afudu [afud1235]-l-':1,10019,safe
False,0,0,0,,395,1765,agi,agar1251,{},24.5024,language,82.297,,Agariya,'Agariya [agar1251][agi]-l-':1,3308,safe
False,0,0,0,,50,5519,agd,agar1252,{},-6.20604,language,145.917,,Agarabi,'Agarabi [agar1252][agd]-l-':1,8063,safe
False,0,0,0,,10,10143,agc,agat1236,{},7.97915,language,7.71639,,Agatu,'Agatu [agat1236][agc]-l-':1,12801,safe
False,0,0,0,,395,1775,avo,agav1236,{},-13.29849,language,-53.43936,,Agavotaguerra,'Agavotaguerra [agav1236][avo]-l-':1,3313,extinct
False,0,0,0,,134,1203,NOCODE_Agbirigba,agbi1234,{},,language,,,Agbirigba,'Agbirigba [agbi1234]-l-':1,2355,safe
False,0,0,0,,10,15534,agq,aghe1239,{},6.38956,language,10.0807,,Aghem,'Aghem [aghe1239][agq]-l-':1,17526,safe
False,4,0,0,,371,7051,agx,aghu1253,{},41.9242,language,47.5843,,Aghul,"('Agul [agul1244]':1,'Gekxun [gekx1238]':1,'Keren [kere1281]':1,'Koshan [kosh1245]':1)'Aghul [aghu1253][agx]-l-':1",9459,definitely endangered
False,0,0,0,,66,2153,ggr,aghu1254,{},-13.735,language,142.426,,Aghu Tharnggalu,'Aghu Tharnggalu [aghu1254][ggr]-l-':1,3855,extinct
False,0,0,0,,50,10867,ahh,aghu1255,{},-6.34674,language,140.043,,Aghu,'Aghu [aghu1255][ahh]-l-':1,13639,safe
True,0,0,0,,120,120,,aghu1256,{},,language,,,Aghu Tharnggalu (Retired),'Aghu Tharnggalu {Retired} [aghu1256][gtu]-l-':1,797,extinct
False,0,0,0,,371,4861,xag,aghw1237,{},40.374444,language,47.126667,,Aghwan,'Aghwan [aghw1237][xag]-l-':1,7049,extinct
False,0,0,0,,353,3009,aif,agii1245,{},-3.49104,language,142.387,,Agi,'Agi [agii1245][aif]-l-':1,4729,safe
False,3,0,0,,316,316,kit,agob1244,{},-9.08521,language,142.532,,Agob-Ende-Kawam,"('Agöb [agob1245]':1,'Ende {papua New Guinea} [ende1235]':1,'Kawam [kawa1281]':1)'Agob-Ende-Kawam [agob1244][kit]-l-':1",1554,safe
False,1,0,0,,10,7537,ibm,agoi1246,{},5.87953,language,8.21629,,Agoi,('Iko {Agoi} [ikoo1244]':1)'Agoi [agoi1246][ibm]-l-':1,10072,safe
False,0,0,0,,21,10485,apf,agta1234,{},,language,,,Agta-Pahanan,'Agta-Pahanan [agta1234][apf]-l-':1,13215,safe
False,0,0,0,,395,1775,aga,agua1251,{},-5.25,language,-75.8333,,Aguano,'Aguano [agua1251][aga]-l-':1,3312,extinct
False,0,0,0,,304,6787,agu,agua1252,{},15.3307,language,-91.3153,,Aguacateco,'Aguacateco [agua1252][agu]-l-':1,9313,safe
False,0,0,0,,391,391,agr,agua1253,{},-5.30044,language,-77.9218,,Aguaruna,'Aguaruna [agua1253][agr]-l-':1,1740,vulnerable
False,0,0,0,,10,5215,aug,agun1238,{},7.49256,language,1.74452,,Aguna,'Aguna [agun1238][aug]-l-':1,7665,safe
False,3,0,0,,21,15821,msm,agus1235,{},8.62731,language,125.742,,Agusan Manobo,"('Adgawan [adga1237]':1,'Surigao Manobo [suri1270]':1,'Umayam [umay1237]':1)'Agusan Manobo [agus1235][msm]-l-':1",17888,safe
False,0,0,0,,21,3548,agn,agut1237,{},10.5328,language,119.655,,Agutaynen,'Agutaynen [agut1237][agn]-l-':1,5389,safe
False,7,0,0,,10,15325,yay,agwa1247,{},5.81055,language,8.03166,,Agwagwune,"('Abayongo [abay1238]':1,'Abini [abin1242]':1,'Adim [adim1238]':1,'Erei [erei1238]':1,'Etono II [eton1252]':1,'Nuclear Agwagwune [nucl1375]':1,'Orum [orum1242]':1)'Agwagwune [agwa1247][yay]-l-':1",17184,safe
False,0,0,0,,10,15589,aha,ahan1243,{},4.85147,language,-1.94657,,Ahanta,'Ahanta [ahan1243][aha]-l-':1,17599,safe
False,0,0,0,,10,5188,ahn,ahan1244,{},7.44139,language,6.00896,,Àhàn,'Àhàn [ahan1244][ahn]-l-':1,7563,safe
True,0,0,0,,120,120,,ahea1240,{},,language,,,Ahe,'Ahe [ahea1240][ahe]-l-':1,840,safe
False,0,0,0,,143,2394,thm,aheu1239,{},17.7655,language,104.229,,Thavung,'Thavung [aheu1239][thm]-l-':1,4134,definitely endangered
False,2,0,0,,21,17879,,ahin1234,{},16.321,language,120.90003,,Ahin-Kayapa Kalanguya,"('Kayapa Kallahan [kaya1320]':1,'Tinoc Kallahan [tino1235][tne]':1)'Ahin-Kayapa Kalanguya [ahin1234][kak]-l-':1",19649,safe
True,0,0,0,,120,120,ahr,ahir1243,{},21.552,language,73.685,,Ahirani,'Ahirani [ahir1243][ahr]-l-':1,1165,safe
False,0,0,0,,23,16077,aho,ahom1240,{},27.2778,language,88.464,,Ahom,'Ahom [ahom1240][aho]-l-':1,18167,extinct
False,0,0,0,,196,4403,aht,ahte1237,{},61.7068,language,-144.889,,Ahtena,'Ahtena [ahte1237][aht]-l-':1,6563,critically endangered
False,0,0,0,,10,3442,nfd,ahwa1235,{},9.17635,language,8.56205,,Ndunic,'Ndunic [ahwa1235][nfd]-l-':1,5164,safe
False,2,0,0,,23,7957,aih,aich1238,{},25.4908,language,107.844,,Ai-Cham,"('Boyao [boya1241]':1,'Di'e [diee1238]':1)'Ai-Cham [aich1238][aih]-l-':1",10718,safe
False,3,0,0,,21,21739,aix,aigh1235,{},-5.99488,language,150.272,,Aighon,"('Aigon [aigo1239]':1,'Apsokok [apso1237]':1,'Bao [baoo1237]':1)'Aighon [aigh1235][aix]-l-':1",22447,safe
False,1,0,0,,,,tba,aika1237,{},-12.6695,language,-60.5353,,Aikanã,('Masaká [masa1312]':1)'Aikanã [aika1237][tba]-l-':1,396,definitely endangered
False,0,0,0,,21,22441,mwg,aikl1237,{},-6.23575,language,149.571,,Aiklep,'Aiklep [aikl1237][mwg]-l-':1,22787,safe
True,0,0,0,,120,120,,aiku1240,{},,language,,,Aiku,'Aiku [aiku1240][mzf]-l-':1,912,safe
False,10,0,0,,89,16339,aiq,aima1241,{},35.283,language,59.1756,,Aimaq,"('Chinghizi [chin1474]':1,'Firozkohi [firo1239]':1,'Jamshidi [jams1238]':1,'Maliki [mali1277]':1,'Mizmast [mizm1238]':1,'Taimani [taim1249]':1,'Taimuri [taim1248]':1,'Teimuri [teim1238]':1,'Zainal [zain1238]':1,'Zohri [zohr1238]':1)'Aimaq [aima1241][aiq]-l-':1",18293,safe
False,0,0,0,,283,1499,ail,aime1238,{},-6.68656,language,142.656,,Aimele,'Aimele [aime1238][ail]-l-':1,2856,safe
False,1,0,0,,151,6273,aim,aimo1244,{},24.6437,language,94.3556,,Aimol,('Langrong [lang1312]':1)'Aimol [aimo1244][aim]-l-':1,8780,critically endangered
False,0,0,0,,317,2931,aic,ainb1238,{},-3.09214,language,141.149,,Ainbai,'Ainbai [ainb1238][aic]-l-':1,4637,severely endangered
False,2,0,0,,54,641,ain,ainu1240,{},43.633654,language,142.46167,,Hokkaido Ainu,"('Hokkaido [hokk1243]':1,'Taraika [tara1248]':1)'Hokkaido Ainu [ainu1240][ain]-l-':1",2053,critically endangered
False,0,0,0,,118,6085,aib,ainu1251,{},39.2714,language,76.4209,,Ainu (China),'Ainu {China} [ainu1251][aib]-l-':1,8556,safe
False,0,0,0,,264,4554,aki,aiom1240,{},-5.13467,language,144.765,,Aiome,'Aiome [aiom1240][aki]-l-':1,6730,safe
False,0,0,0,,159,2495,air,airo1242,{},-1.8522,language,138.158,,Airoran,'Airoran [airo1242][air]-l-':1,4290,safe
False,0,0,0,,23,19795,aio,aito1238,{},26.5145,language,92.3169,,Aiton,'Aiton [aito1238][aio]-l-':1,21014,severely endangered
False,6,0,0,,10,3458,ajg,ajab1235,{},7.06634,language,1.64992,,Aja (Benin),"('Dogbo [dogb1238]':1,'Dogo {Benin} [dogo1292]':1,'Hwe [hwee1238]':1,'Sikpi [sikp1238]':1,'Tado {Benin} [tado1245]':1,'Tala {Benin} [tala1280]':1)'Aja {Benin} [ajab1235][ajg]-l-':1",5213,safe
False,0,0,0,,239,239,aja,ajas1235,{},8.58003,language,25.6122,,Aja (Sudan),'Aja {Sudan} [ajas1235][aja]-l-':1,1415,critically endangered
False,0,0,0,,376,7182,ajw,ajaw1236,{},10.21,language,9.89205,,Ajawa,'Ajawa [ajaw1236][ajw]-l-':1,9606,extinct
False,0,0,0,,21,17705,aji,ajie1238,{},-21.3029,language,165.468,,Ajië,'Ajië [ajie1238][aji]-l-':1,19438,safe
False,0,0,0,,79,10970,cpc,ajyi1238,{},-9.82364,language,-74.61947,,Ajyíninka Apurucayali,'Ajyíninka Apurucayali [ajyi1238][cpc]-l-':1,13705,vulnerable
False,0,0,0,,370,1696,soh,akaa1242,{},11.2101,language,33.6524,,Aka,'Aka [akaa1242][soh]-l-':1,3156,critically endangered
False,0,0,0,,312,4617,akm,akab1248,{},12.3629,language,92.8011,,Aka-Bo,'Aka-Bo [akab1248][akm]-l-':1,6801,extinct
False,0,0,0,,312,2905,abj,akab1249,{},12.3782,language,92.7818,,Aka-Bea,'Aka-Bea [akab1249][abj]-l-':1,4622,extinct
False,0,0,0,,312,4617,aci,akac1240,{},13.49086,language,92.94855,,Aka-Cari,'Aka-Cari [akac1240][aci]-l-':1,6800,extinct
False,1,0,0,,312,4618,akj,akaj1239,{},13.1525,language,92.9504,,Aka-Jeru,('Mixed Great Andamanese [mixe1288][gac]':1)'Aka-Jeru [akaj1239][akj]-l-':1,6803,extinct
False,0,0,0,,312,4618,ack,akak1251,{},12.0944,language,92.7466,,Aka-Kora,'Aka-Kora [akak1251][ack]-l-':1,6802,extinct
False,0,0,0,,312,1546,akx,akak1252,{},12.8494,language,92.8227,,Aka-Kede,'Aka-Kede [akak1252][akx]-l-':1,2903,extinct
False,0,0,0,,312,4619,aky,akak1253,{},12.73253,language,92.78661,,Aka-Kol,'Aka-Kol [akak1253][aky]-l-':1,6805,extinct
False,10,0,0,,10,12970,aka,akan1250,{},6.34756,language,-1.33254,,Akan,"('Agona [agon1238]':1,'Ahafo [ahaf1238]':1,'Akyem Bosome [akye1239]':1,'Asen [asen1242]':1,'Dankyira [dank1238]':1,'Fante [fant1241][fat]':1,'Kwawu [kwaw1238]':1,('Akuapem [akua1239]':1,'Asante [asan1239]':1)'Twi [twii1234][twi]':1)'Akan [akan1250][aka]-l-':1",15586,safe
False,0,0,0,,312,2905,acl,akar1243,{},12.6663,language,92.8278,,Akar-Bale,'Akar-Bale [akar1243][acl]-l-':1,4621,extinct
False,0,0,0,,10,21242,aks,akas1242,{},8.8858,language,1.37035,,Akaselem,'Akaselem [akas1242][aks]-l-':1,22063,safe
False,0,0,0,,374,7093,ake,akaw1239,{},6.16277,language,-60.862,,Akawaio,'Akawaio [akaw1239][ake]-l-':1,9483,vulnerable
False,0,0,0,,10,5207,keu,akeb1238,{},7.78365,language,0.77668,,Akebu,'Akebu [akeb1238][keu]-l-':1,7624,safe
False,0,0,0,,10,10037,aik,akee1238,{},8.59543,language,8.75768,,Ake,'Ake [akee1238][aik]-l-':1,12711,safe
False,0,0,0,,21,17765,tsr,akei1237,{},-15.6377,language,166.767,,Akei,'Akei [akei1237][tsr]-l-':1,19529,safe
False,0,0,0,,151,16493,aeu,akeu1235,{},,language,,,Akeu,'Akeu [akeu1235][aeu]-l-':1,18491,definitely endangered
False,2,0,0,,151,16493,ahk,akha1245,{},21.2309,language,100.964,,Akha,"('Ako [akoo1247]':1,'Asong [ason1245]':1)'Akha [akha1245][ahk]-l-':1",18490,safe
False,0,0,0,,371,4866,akv,akhv1239,{},42.4003,language,46.3037,,Akhvakh,'Akhvakh [akhv1239][akv]-l-':1,7071,definitely endangered
False,0,0,0,,385,5018,sia,akka1237,{},67.8625,language,32.4046,,Akkala Sami,'Akkala Sami [akka1237][sia]-l-':1,7278,extinct
False,0,0,0,,376,3192,akk,akka1240,{},,language,,,Akkadian,'Akkadian [akka1240][akk]-l-':1,4909,extinct
False,0,0,0,,142,1219,akq,akkk1240,{},-3.57026,language,141.784,,Ak,'Ak [akkk1240][akq]-l-':1,2380,severely endangered
False,0,0,0,,21,13277,akl,akla1241,{},11.5543,language,122.354,,Aklanon,'Aklanon [akla1241][akl]-l-':1,15857,safe
False,0,0,0,,21,22442,akt,akol1237,{},-6.22711,language,150.182,,Akolet,'Akolet [akol1237][akt]-l-':1,22792,safe
False,7,0,0,,10,20350,bss,akoo1248,{},4.9243,language,9.65522,,Akoose,"('Elung [elun1242]':1,'Mwambong [mwam1246]':1,'Mwamenam [mwam1245]':1,'Ninong [nino1238]':1,'Northern Bakossi [nort2803]':1,'Southern Bakossi [sout2818]':1,'Western Bakossi [west2478]':1)'Akoose [akoo1248][bss]-l-':1",21500,safe
False,0,0,0,,323,4666,miw,akoy1238,{},-7.66067,language,145.669,,Akoye,'Akoye [akoy1238][miw]-l-':1,6845,safe
False,0,0,0,,10,5192,akf,akpa1238,{},7.32586,language,8.01629,,Akpa,'Akpa [akpa1238][akf]-l-':1,7580,safe
False,9,0,0,,10,3445,ibe,akpe1248,{},7.50256,language,5.95559,,Akpes,"('Akunnu [akun1239]':1,'Ase [asee1238]':1,'Daja [daja1240]':1,'Efifa [efif1238]':1,'Esuku [esuk1238]':1,'Gedegede [gede1241]':1,'Ibaram [ibar1241]':1,'Ikorom [ikor1238]':1,'Iyani [iyan1238]':1)'Akpes [akpe1248][ibe]-l-':1",5180,safe
False,0,0,0,,10,10035,NOCODE_Akpondu,akpo1243,{},9.235232,language,8.545454,,Akpondu,'Akpondu [akpo1243]-l-':1,12708,extinct
False,0,0,0,,264,2815,afi,akru1241,{},-4.88687,language,144.821,,Chini,'Chini [akru1241][afi]-l-':1,4558,safe
False,0,0,0,,10,12796,ayk,akuk1235,{},7.40354,language,6.34264,,Akuku,'Akuku [akuk1235][ayk]-l-':1,15352,safe
False,0,0,0,,10,7500,aku,akum1238,{},6.85716,language,9.96261,,Akum,'Akum [akum1238][aku]-l-':1,10015,critically endangered
False,0,0,0,,298,4595,aqz,akun1241,{},-12.8322,language,-60.9716,,Akuntsu,'Akuntsu [akun1241][aqz]-l-':1,6767,safe
False,0,0,0,,374,4896,ako,akur1238,{},3.19607,language,-55.6294,,Akurio,'Akurio [akur1238][ako]-l-':1,7098,critically endangered
False,0,0,0,,10,12917,akw,akwa1248,{},-0.39897,language,15.4623,,Akwa,'Akwa [akwa1248][akw]-l-':1,15511,safe
False,0,0,0,,152,1264,akz,alab1237,{},30.76738,language,-94.62848,,Alabama,'Alabama [alab1237][akz]-l-':1,2484,definitely endangered
False,0,0,0,,21,7842,dul,alab1246,{},14.1217,language,122.014,,Alabat Island Agta,'Alabat Island Agta [alab1246][dul]-l-':1,10536,critically endangered
False,0,0,0,,376,12260,alw,alab1254,{},7.39014,language,38.1732,,Alaba-K'abeena,'Alaba-K'abeena [alab1254][alw]-l-':1,14837,safe
False,0,0,0,,59,59,NOCODE_Alacalufe-Austral,alac1239,{},-54.788017,language,-70.140381,,Alacalufe-Austral,'Alacalufe-Austral [alac1239]-l-':1,655,extinct
False,0,0,0,,59,656,NOCODE_Alacalufe-Central,alac1240,{},-53.435719,language,-71.04126,,Alacalufe-Central,'Alacalufe-Central [alac1240]-l-':1,2079,extinct
False,5,0,0,,383,12469,mim,alac1244,{},17.4944,language,-98.4674,,Alacatlatzala Mixtec,"('Atlamajalcingo del Monte [atla1271]':1,'Cuatzoquitengo [cuat1239]':1,'Plan de Guadalupe [plan1238]':1,'Potoichan [poto1253]':1,'Tototepec [toto1307]':1)'Alacatlatzala Mixtec [alac1244][mim]-l-':1",15069,safe
False,4,0,0,,10,10143,ala,alag1242,{},8.34986,language,8.52085,,Alago,"('Agwatashi [agwa1246]':1,'Assaikio [assa1267]':1,'Doma [doma1261]':1,'Keana [kean1238]':1)'Alago [alag1242][ala]-l-':1",12804,safe
False,0,0,0,,376,7146,wbj,alag1248,{},-4.64148,language,35.7231,,Alagwa,'Alagwa [alag1248][wbj]-l-':1,9532,safe
True,0,0,0,,120,120,NOCODE_Alaguilac,alag1249,{},,language,,,Alaguilac,'Alaguilac [alag1249]-l-':1,1018,safe
False,0,0,0,,143,1230,alk,alak1253,{},15.5565,language,106.597,,Alak,'Alak [alak1253][alk]-l-':1,2413,safe
False,2,0,0,,142,2378,amp,alam1246,{},-4.66307,language,143.316,,Alamblak,"('Karawari [kara1494]':1,'Kuvenmas [kuve1239]':1)'Alamblak [alam1246][amp]-l-':1",4115,safe
False,0,0,0,,21,3524,alj,alan1249,{},13.0982,language,121.022,,Alangan,'Alangan [alan1249][alj]-l-':1,5324,safe
False,0,0,0,,395,1750,apv,alap1235,{},-12.329886,language,-59.996702,,Alapmunte,'Alapmunte [alap1235][apv]-l-':1,3281,extinct
False,0,0,0,,172,1291,alh,alaw1244,{},-15.5458,language,134.282,,Alawa,'Alawa [alaw1244][alh]-l-':1,2510,critically endangered
False,5,0,0,,21,10535,bhk,alba1269,{},13.1989,language,123.49,,Inland-Buhi-Daraga Bikol,"('Buhi [buhi1243][ubl]':1,'Daraga [dara1251]':1,'Libon [libo1242][lbl]':1,'Ligao [liga1237]':1,'Oas [oass1237]':1)'Inland-Buhi-Daraga Bikol [alba1269][bhk]-l-':1",13265,safe
False,0,0,0,,193,1332,sqk,alba1271,{},,language,,,Albanian Sign Language,'Albanian Sign Language [alba1271][sqk]-l-':1,2629,safe
False,2,0,0,,383,12469,xta,alco1235,{},17.3687,language,-98.3969,,Alcozauca Mixtec,"('Petlacalancingo Mixtec [petl1238]':1,'Xochapa Mixtec [xoch1238]':1)'Alcozauca Mixtec [alco1235][xta]-l-':1",15071,safe
False,0,0,0,,10,7594,alf,aleg1238,{},6.59423,language,9.00394,,Alege,'Alege [aleg1238][alf]-l-':1,10174,safe
False,0,0,0,,50,5516,gah,alek1238,{},-6.03901,language,145.387,,Alekano,'Alekano [alek1238][gah]-l-':1,8059,safe
False,3,0,0,,227,227,ale,aleu1260,{},52.1228,language,-174.29,,Aleut,"('Beringov [beri1255]':1,'Eastern Aleut [east2533]':1,'Western Aleut [west2616]':1)'Aleut [aleu1260][ale]-l-':1",1397,critically endangered
False,0,0,0,,193,2631,asp,alge1235,{},36.4762,language,3.5462,,Algerian Sign Language,'Algerian Sign Language [alge1235][asp]-l-':1,4378,safe
False,3,0,0,,376,12219,arq,alge1239,{},35.4208,language,3.23033,,Algerian Arabic,"('Algiers [algi1247]':1,'Constantine [cons1245]':1,'Oran [oran1236]':1)'Algerian Arabic [alge1239][arq]-l-':1",14789,safe
False,0,0,0,,376,12219,aao,alge1240,{},20.8884,language,4.80626,,Algerian Saharan Arabic,'Algerian Saharan Arabic [alge1240][aao]-l-':1,14786,safe
False,1,0,0,,404,9718,alq,algo1255,{},47.3876,language,-77.5258,,Algonquin,('Miniwaki [mini1254]':1)'Algonquin [algo1255][alq]-l-':1,12495,severely endangered
False,0,0,0,,10,15260,aiy,alii1240,{},4.60014,language,18.0352,,Ali,'Ali [alii1240][aiy]-l-':1,17167,safe
False,0,0,0,,193,1329,NOCODE_Alipur-Sign,alip1234,{},,language,,,Alipur Sign Language,'Alipur Sign Language [alip1234]-l-':1,2563,safe
False,0,0,0,,355,18520,all,alla1247,{},11.0803,language,76.6593,,Allar,'Allar [alla1247][all]-l-':1,20012,safe
False,0,0,0,,10,5210,ald,alla1248,{},5.22371,language,-4.42647,,Alladian,'Alladian [alla1248][ald]-l-':1,7631,safe
False,0,0,0,,132,132,NOCODE_Allentiac,alle1238,{},-33.480938,language,-68.096924,,Allentiac,'Allentiac [alle1238]-l-':1,1200,extinct
False,0,0,0,,66,3861,aid,alng1239,{},-12.5324,language,141.938,,Alngith,'Alngith [alng1239][aid]-l-':1,5816,extinct
False,0,0,0,,383,15018,zaq,aloa1235,{},17.4137,language,-96.7438,,Aloápam Zapotec,'Aloápam Zapotec [aloa1235][zaq]-l-':1,16952,safe
False,0,0,0,,151,16466,ypo,alop1235,{},23.59,language,101.933,,Alo Phola,'Alo Phola [alop1235][ypo]-l-':1,18457,vulnerable
False,0,0,0,,21,17799,aol,alor1247,{},-8.20382,language,124.264,,Alorese,'Alorese [alor1247][aol]-l-':1,19590,safe
False,0,0,0,,193,1329,syy,alsa1242,{},,language,,,Al-Sayyid Bedouin Sign Language,'Al-Sayyid Bedouin Sign Language [alsa1242][syy]-l-':1,2575,safe
False,2,0,0,,,,aes,alse1251,{},44.408,language,-123.94,,Alsea-Yaquina,"('Alsea [alse1252]':1,'Yaquina [yaqu1250]':1)'Alsea-Yaquina [alse1251][aes]-l-':1",210,extinct
False,0,0,0,,151,16467,aub,alug1235,{},23.0,language,103.0,,Alugu,'Alugu [alug1235][aub]-l-':1,18458,safe
False,0,0,0,,355,9375,xua,aluk1238,{},11.3456,language,76.7995,,Alu Kurumba,'Alu Kurumba [aluk1238][xua]-l-':1,12095,safe
False,2,0,0,,10,10035,aab,alum1246,{},9.01513,language,8.55956,,Alumu-Tesu,"('Alumu [alum1247]':1,'Tesu [tesu1244]':1)'Alumu-Tesu [alum1246][aab]-l-':1",12709,safe
False,5,0,0,,21,20916,alp,alun1238,{},-3.11477,language,128.394,,Alune,"('Central East Alune [cent2077]':1,'Central West Alune [cent2078]':1,'Kairatu [kair1264]':1,'North Coastal Alune [nort2866]':1,'South Alune [sout2893]':1)'Alune [alun1238][alp]-l-':1",21871,vulnerable
False,0,0,0,,151,16477,yna,aluo1235,{},26.0,language,102.0,,Aluo,'Aluo [aluo1235][yna]-l-':1,18476,definitely endangered
False,4,0,0,,429,7416,alz,alur1250,{},2.36213,language,31.0016,,Alur,"('Jokot [joko1238]':1,'Jonam [jona1239]':1,'Mambisa [mamb1303]':1,'Wanyoro [wany1245]':1)'Alur [alur1250][alz]-l-':1",9848,safe
False,3,0,0,,117,776,alr,alut1245,{},60.3844,language,165.653,,Alutor,"('Alutorskij [alut1246]':1,'Karaginskij [kara1472]':1,'Palanskij [pala1340]':1)'Alutor [alut1245][alr]-l-':1",2277,severely endangered
False,2,0,0,,89,16362,avd,alvi1241,{},35.0075,language,50.3794,,Alviri-Vidari,"('Alvir [alvi1242]':1,'Vidar [vida1238]':1)'Alviri-Vidari [alvi1241][avd]-l-':1",18372,definitely endangered
False,0,0,0,,66,3823,aly,alya1239,{},-21.0427,language,136.835,,Alyawarr,'Alyawarr [alya1239][aly]-l-':1,5786,safe
False,3,0,0,,21,23041,amq,amah1245,{},-3.32028,language,128.939,,Amahai,"('Makariki [maka1308]':1,'Rutah [ruta1241]':1,'Soahuku [soah1237]':1)'Amahai [amah1245][amq]-l-':1",23147,critically endangered
False,2,0,0,,16,5318,amc,amah1246,{},-10.2012,language,-72.3208,,Amahuaca,"('Inuvaken [inuv1238]':1,'Viwivakeu [viwi1238]':1)'Amahuaca [amah1246][amc]-l-':1",7767,severely endangered
False,0,0,0,,50,2032,ali,amai1246,{},-5.18742,language,145.368,,Amaimon,'Amaimon [amai1246][ali]-l-':1,3679,safe
False,0,0,0,,142,142,aad,amal1242,{},-4.04517,language,141.995,,Amal,'Amal [amal1242][aad]-l-':1,1218,safe
False,0,0,0,,430,1859,NOCODE_Amam,amam1246,{},,language,,,Amam,'Amam [amam1246]-l-':1,3413,safe
False,0,0,0,,193,1329,NOCODE_Amami-Sign,amam1247,{},,language,,,Amami O Shima Sign Language,'Amami O Shima Sign Language [amam1247]-l-':1,2579,safe
False,0,0,0,,317,1555,amn,aman1265,{},-3.51516,language,141.178,,Amanab,'Amanab [aman1265][amn]-l-':1,2927,safe
False,0,0,0,,298,9295,ama,aman1266,{},-3.79772,language,-48.6613,,Amanayé,'Amanayé [aman1266][ama]-l-':1,12051,extinct
False,0,0,0,,25,470,amm,amap1240,{},-4.20192,language,141.658,,Ama (Papua New Guinea),'Ama {Papua New Guinea} [amap1240][amm]-l-':1,1958,safe
True,0,0,0,,120,120,,amap1241,{},,language,,,Amapá Creole,'Amapá Creole [amap1241][amd]-l-':1,977,safe
False,0,0,0,,222,222,amg,amar1271,{},-11.9876,language,132.878,,Amurdak,'Amurdak [amar1271][amg]-l-':1,1385,safe
False,0,0,0,,21,19388,aie,amar1272,{},-5.55778,language,148.68,,Amara,'Amara [amar1272][aie]-l-':1,20754,safe
False,4,0,0,,21,13142,aaz,amar1273,{},-10.21751,language,123.96373,,Amarasi,"('Kotos [koto1251]':1,'Ro'is [rois1241]':1,'Ro'is Hero [rois1243]':1,'Ro'is Tais Nonof [rois1242]':1)'Amarasi [amar1273][aaz]-l-':1",15747,safe
False,1,0,0,,112,112,amr,amar1274,{},-12.4931,language,-70.5533,,Amarakaeri,('Kisambaeri [kisa1267]':1)'Amarakaeri [amar1274][amr]-l-':1,765,definitely endangered
False,0,0,0,,206,206,nyi,amas1236,{},12.0993,language,29.4332,,Ama (Sudan),'Ama {Sudan} [amas1236][nyi]-l-':1,1355,safe
False,0,0,0,,383,15019,zpo,amat1238,{},16.2707,language,-96.4003,,Amatlán Zapotec,'Amatlán Zapotec [amat1238][zpo]-l-':1,16966,safe
False,3,0,0,,10,15459,rwm,amba1263,{},0.81206,language,30.0014,,Amba (Uganda),"('Kigumu [kigu1238]':1,'Kyanzi [kyan1239]':1,'Suwa [suwa1240]':1)'Amba {Uganda} [amba1263][rwm]-l-':1",17368,vulnerable
False,3,0,0,,21,19293,amk,amba1265,{},-1.88126,language,136.526,,Ambai,"('Manawi [mana1293]':1,'Nuclear Ambai [nucl1466]':1,'Randawaya [rand1239]':1)'Ambai [amba1265][amk]-l-':1",20619,safe
False,0,0,0,,21,15707,utp,amba1266,{},-11.2958,language,166.498,,Amba (Solomon Islands),'Amba {Solomon Islands} [amba1266][utp]-l-':1,17730,safe
False,0,0,0,,21,5335,abc,amba1267,{},14.8156,language,120.283,,Ambala Ayta,'Ambala Ayta [amba1267][abc]-l-':1,7803,safe
False,2,0,0,,264,264,aew,amba1269,{},-4.23181,language,144.285,,Ambakich,"('Northern Ambakich [nort2931]':1,'Southern Ambakich [sout2951]':1)'Ambakich [amba1269][aew]-l-':1",1466,safe
False,0,0,0,,37,37,NOCODE_Ambermo,ambe1246,{},,language,,,Ambermo,'Ambermo [ambe1246]-l-':1,538,extinct
False,0,0,0,,10,7600,ael,ambe1247,{},5.94043,language,9.62028,,Ambele,'Ambele [ambe1247][ael]-l-':1,10192,safe
False,0,0,0,,21,10394,amv,ambe1248,{},-3.85919,language,127.196,,Ambelau,'Ambelau [ambe1248][amv]-l-':1,13129,safe
False,0,0,0,,21,17764,alm,ambl1237,{},-15.5169,language,166.95,,Amblong,'Amblong [ambl1237][alm]-l-':1,19524,definitely endangered
False,0,0,0,,10,10171,amb,ambo1249,{},7.07637,language,10.7798,,Ambo,'Ambo [ambo1249][amb]-l-':1,12844,safe
False,1,0,0,,21,16007,abs,ambo1250,{},-3.71342,language,128.184,,Ambonese Malay,('Dobo Malay [dobo1244]':1)'Ambonese Malay [ambo1250][abs]-l-':1,18115,safe
False,0,0,0,,214,4453,qva,ambo1252,{},-10.5138,language,-76.1135,,Ambo-Pasco Quechua,'Ambo-Pasco Quechua [ambo1252][qva]-l-':1,6652,severely endangered
False,0,0,0,,353,3018,aag,ambr1239,{},-3.61,language,142.56,,Ambrak,'Ambrak [ambr1239][aag]-l-':1,4739,safe
False,4,0,0,,423,3406,abt,ambu1247,{},-3.7801,language,143.059,,Ambulas,"('Maprik [mapr1240]':1,'Wingei [wing1239]':1,'Wosera-Kamu [wose1244]':1,'Wosera-Mamu [wose1243]':1)'Ambulas [ambu1247][abt]-l-':1",5118,safe
False,0,0,0,,46,46,amj,amda1238,{},14.7528,language,20.8912,,Amdang,'Amdang [amda1238][amj]-l-':1,622,safe
False,4,0,0,,151,6424,adx,amdo1237,{},34.5177,language,100.485,,Amdo Tibetan,"('Hbrogpa [hbro1238]':1,'Rongba [rong1262]':1,'Rongmahbrogpa [rong1261]':1,'Rtahu [rtah1238]':1)'Amdo Tibetan [amdo1237][adx]-l-':1",9057,safe
False,3,0,0,,50,5564,aey,amel1241,{},-5.29126,language,145.687,,Amele,"('Haija [haij1242]':1,'Huar [huar1254]':1,'Jagahala [jaga1247]':1)'Amele [amel1241][aey]-l-':1",8103,safe
False,0,0,0,,193,6537,ase,amer1248,{},33.8117,language,-81.6121,,American Sign Language,'American Sign Language [amer1248][ase]-l-':1,9149,safe
False,0,0,0,,369,1663,NOCODE_American-Indian-Pidgin-English,amer1255,{},,language,,,American Indian Pidgin English,'American Indian Pidgin English [amer1255]-l-':1,3101,safe
True,0,0,0,,120,120,,amer1256,{},,language,,,Amerax,'Amerax [amer1256][aex]-l-':1,908,safe
False,2,0,0,,21,17883,ifa,amga1235,{},16.9016,language,121.042,,Amganad Ifugao,"('Banaue Ifugao [bana1290]':1,'Burnay Ifugao [burn1237]':1)'Amganad Ifugao [amga1235][ifa]-l-':1",19656,safe
False,0,0,0,,376,12229,amh,amha1245,{},11.708182,language,39.543456,,Amharic,'Amharic [amha1245][amh]-l-':1,14815,safe
False,0,0,0,,410,3375,amy,amii1238,{},-13.5573,language,130.04,,Ami,'Ami [amii1238][amy]-l-':1,5079,safe
True,0,0,0,,120,120,,amik1238,{},,language,,,Amikoana,'Amikoana [amik1238][akn]-l-':1,1152,safe
False,5,0,0,,21,3558,ami,amis1246,{},23.0917,language,121.348,,Amis,"('Central Amis [cent2104]':1,'Chengkung-Kwangshan [chen1258]':1,'Northern Amis [nort2901]':1,'Southern Amis [sout2929]':1,'Tavalong-Vataan [tava1241]':1)'Amis [amis1246][ami]-l-':1",5408,vulnerable
True,0,0,0,,120,120,qgg,ammo1234,{},,language,,,Ammonite,'Ammonite [ammo1234][qgg]-l-':1,940,extinct
False,0,0,0,,353,3019,alx,amol1235,{},-3.46843,language,142.532,,Mol,'Mol [amol1235][alx]-l-':1,4743,safe
False,0,0,0,,383,9671,mbz,amol1236,{},16.6521,language,-97.4518,,Amoltepec Mixtec,'Amoltepec Mixtec [amol1236][mbz]-l-':1,12463,safe
False,0,0,0,,10,12959,amo,amoo1242,{},10.3229,language,8.65405,,Amo,'Amo [amoo1242][amo]-l-':1,15574,safe
False,0,0,0,,376,7110,NOCODE_Amorite,amor1239,{},,language,,,Amorite,'Amorite [amor1239]-l-':1,9496,extinct
False,0,0,0,,37,37,NOCODE_Amotomanco,amot1239,{},,language,,,Amotomanco,'Amotomanco [amot1239]-l-':1,581,safe
False,0,0,0,,30,481,aqd,ampa1238,{},14.15,language,-3.55,,Ampari Dogon,'Ampari Dogon [ampa1238][aqd]-l-':1,1978,safe
False,0,0,0,,21,7852,apg,ampa1239,{},-0.79259,language,116.349,,Ampanang,'Ampanang [ampa1239][apg]-l-':1,10562,safe
False,0,0,0,,151,4197,ajz,amri1238,{},26.024,language,91.482,,Amri Karbi,'Amri Karbi [amri1238][ajz]-l-':1,6300,safe
False,0,0,0,,61,61,amt,amto1250,{},-4.12165,language,141.339,,Amto,'Amto [amto1250][amt]-l-':1,660,safe
False,0,0,0,,298,6768,adw,amun1246,{},-9.04023,language,-62.3064,,Amundava,'Amundava [amun1246][adw]-l-':1,9283,vulnerable
False,3,0,0,,10,10063,anw,anaa1238,{},4.94832,language,7.57969,,Anaang,"('Abak [abak1242]':1,'Ikot Ekpene [ikot1238]':1,'Ukanafun [ukan1238]':1)'Anaang [anaa1238][anw]-l-':1",12740,safe
False,0,0,0,,21,17862,akg,anak1240,{},-9.63425,language,119.605,,Anakalangu,'Anakalangu [anak1240][akg]-l-':1,19626,safe
False,2,0,0,,151,4191,anm,anal1239,{},24.0506,language,94.2806,,Anal,"('Laizo [laiz1241]':1,'Mulsom [muls1238]':1)'Anal [anal1239][anm]-l-':1",6280,vulnerable
False,0,0,0,,50,8148,pda,anam1247,{},-4.68869,language,145.051,,Anam,'Anam [anam1247][pda]-l-':1,10833,safe
False,0,0,0,,50,8148,imi,anam1248,{},-4.63762,language,144.991,,Anamuxra,'Anamuxra [anam1248][imi]-l-':1,10832,safe
False,0,0,0,,298,12059,aan,anam1249,{},-2.71119,language,-49.303,,Anambé,'Anambé [anam1249][aan]-l-':1,14703,critically endangered
True,0,0,0,,120,120,bpo,anas1239,{},-1.73908,language,137.716,,Anasi,'Anasi [anas1239][bpo]-l-':1,946,safe
False,0,0,0,,30,3596,dti,anat1248,{},14.6669,language,-3.1168,,Ana Tinga Dogon,'Ana Tinga Dogon [anat1248][dti]-l-':1,5445,safe
False,0,0,0,,79,3907,NOCODE_Anauya,anau1243,{},,language,,,Anauyá,'Anauyá [anau1243]-l-':1,5860,extinct
False,0,0,0,,395,395,acb,anca1236,{},6.66524,language,11.1087,,Áncá,'Áncá [anca1236][acb]-l-':1,1767,safe
False,6,0,0,,89,2205,grc,anci1242,{},39.8155,language,21.9129,,Ancient Greek,"('Aeolic [aeol1234]':1,'Arcadocypriot [arca1234]':1,'Attic [atti1240]':1,'Doric [dori1248]':1,'Ionic [ioni1244]':1,'Northwestern Ancient Greek [nort3269]':1)'Ancient Greek [anci1242][grc]-l-':1",3937,extinct
False,0,0,0,,376,12221,hbo,anci1244,{},31.7761,language,35.1725,,Ancient Hebrew,'Ancient Hebrew [anci1244][hbo]-l-':1,14802,extinct
False,6,0,0,,376,7109,xna,anci1245,{},,language,,,Ancient North Arabian,"('Dadanitic [dada1236]':1,'Dumaitic [duma1255]':1,'Hasaitic [hasa1249]':1,'Hismaic [hism1236]':1,'Safaitic [safa1245]':1,'Taymanitic [taym1240]':1)'Ancient North Arabian [anci1245][xna]-l-':1",9492,extinct
False,0,0,0,,37,37,NOCODE_Ancient-Ligurian,anci1248,{},,language,,,Ancient Ligurian,'Ancient Ligurian [anci1248]-l-':1,507,extinct
False,0,0,0,,89,11185,hca,anda1280,{},11.676,language,92.738,,Andaman Creole Hindi,'Andaman Creole Hindi [anda1280][hca]-l-':1,14077,safe
False,0,0,0,,419,419,afd,anda1283,{},-4.96449,language,143.637,,Andai,'Andai [anda1283][afd]-l-':1,1834,safe
False,0,0,0,,264,2813,aod,anda1284,{},-4.48734,language,144.767,,Andarum,'Andarum [anda1284][aod]-l-':1,4550,safe
False,0,0,0,,,,ana,anda1286,{},2.74999,language,-76.0,,Andaqui,'Andaqui [anda1286][ana]-l-':1,411,extinct
False,0,0,0,,376,14791,xaa,anda1287,{},,language,,,Andalusian Arabic,'Andalusian Arabic [anda1287][xaa]-l-':1,16712,extinct
False,1,0,0,,66,3823,adg,ande1247,{},-22.51278,language,137.3515,,Andegerebinha,('Ayerrerenge [ayer1246][axe]':1)'Andegerebinha [ande1247][adg]-l-':1,5785,safe
False,0,0,0,,89,8454,anr,andh1242,{},19.4734,language,77.7156,,Andh,'Andh [andh1242][anr]-l-':1,11150,safe
False,5,0,0,,371,4866,ani,andi1255,{},42.8078,language,46.2919,,Andi,"('Gagatl [gaga1250]':1,'Kvanxidatl [kvan1238]':1,'Munin [muni1255]':1,'Rikvani [rikv1238]':1,'Zilo [zilo1238]':1)'Andi [andi1255][ani]-l-':1",7074,definitely endangered
False,0,0,0,,21,10660,bzb,andi1257,{},-0.88368,language,123.174,,Andio,'Andio [andi1257][bzb]-l-':1,13503,vulnerable
False,0,0,0,,204,1354,NOCODE_Andoquero,ando1254,{},-0.666992,language,-72.310867,,Andoquero,'Andoquero [ando1254]-l-':1,2667,extinct
False,0,0,0,,62,2085,anb,ando1255,{},-3.29664,language,-76.6056,,Andoa,'Andoa [ando1255][anb]-l-':1,3750,extinct
False,0,0,0,,,,ano,ando1256,{},-0.53751,language,-72.0869,,Andoque,'Andoque [ando1256][ano]-l-':1,76,severely endangered
False,0,0,0,,151,6361,NOCODE_Andro,andr1246,{},24.754303,language,94.033796,,Andro,'Andro [andr1246]-l-':1,8926,extinct
False,0,0,0,,21,17657,anx,andr1248,{},-2.05894,language,147.085,,Andra-Hus,'Andra-Hus [andr1248][anx]-l-':1,19321,safe
False,0,0,0,,21,13119,aty,anei1239,{},-20.1864,language,169.825,,Aneityum,'Aneityum [anei1239][aty]-l-':1,15699,safe
False,5,0,0,,242,1422,aby,anem1248,{},-9.75911,language,148.479,,Aneme Wake,"('Auwaka [auwa1241]':1,'Buniabura [buni1247]':1,'Doma {Papua New Guinea} [doma1263]':1,'Jari [jari1243]':1,'Mori [mori1270]':1)'Aneme Wake [anem1248][aby]-l-':1",2748,safe
False,0,0,0,,,,anz,anem1249,{},-5.54836,language,148.993,,Anem,'Anem [anem1249][anz]-l-':1,367,safe
False,0,0,0,,342,1589,myo,anfi1235,{},8.568,language,34.647,,Anfillo,'Anfillo [anfi1235][myo]-l-':1,2976,critically endangered
False,10,0,0,,151,11550,njm,anga1288,{},25.6841,language,93.8668,,Angami Naga,"('Chakroma [chak1268]':1,'Dzuna [dzun1241]':1,'Kehena [kehe1240]':1,'Khonoma [khon1248]':1,'Kohima [kohi1249]':1,'Mima [mima1238]':1,'Mozome [mozo1238]':1,'Nali {India} [nali1243]':1,'Tengima [teng1262]':1,'Tenyidie [teny1242]':1)'Angami Naga [anga1288][njm]-l-':1",14386,vulnerable
False,0,0,0,,323,323,agm,anga1290,{},-7.15012,language,146.352,,Angaataha,'Angaataha [anga1290][agm]-l-':1,1565,safe
False,3,0,0,,50,8154,akh,anga1292,{},-6.13347,language,143.478,,Angal Heneng,"('Augu [augu1243]':1,'Nipa [nipa1239]':1,'Waola [waol1238]':1)'Angal Heneng [anga1292][akh]-l-':1",10846,safe
False,0,0,0,,50,8154,age,anga1293,{},-6.0127,language,143.592,,Angal,'Angal [anga1293][age]-l-':1,10847,safe
False,1,0,0,,50,8154,aoe,anga1294,{},-6.23296,language,143.583,,Angal Enen,('Megi [megi1246]':1)'Angal Enen [anga1294][aoe]-l-':1,10845,safe
False,0,0,0,,193,1329,NOCODE_Angami-Sign,anga1315,{},,language,,,Angami Naga Sign Language,'Angami Naga Sign Language [anga1315]-l-':1,2572,safe
False,0,0,0,,35,489,,anga1316,{},,language,,,Angaité,'Angaité [anga1316][aqt]-l-':1,1988,safe
False,0,0,0,,66,3859,NOCODE_Anggamuthi,angg1238,{},,language,,,Anggamuthi,'Anggamuthi [angg1238]-l-':1,5812,extinct
False,0,0,0,,50,3633,yli,angg1239,{},-4.0836,language,139.457,,Angguruk Yali,'Angguruk Yali [angg1239][yli]-l-':1,5470,safe
False,0,0,0,,89,8437,anp,angi1238,{},26.0047,language,85.534,,Angika,'Angika [angi1238][anp]-l-':1,11107,vulnerable
False,0,0,0,,399,1803,rme,angl1239,{},39.0,language,-78.0,,Angloromani,'Angloromani [angl1239][rme]-l-':1,3337,safe
False,2,0,0,,344,344,agg,ango1254,{},-3.7167,language,141.199,,Angor,"('Nai {Angor} [naii1242]':1,'Samanai [sama1304]':1)'Angor [ango1254][agg]-l-':1",1591,safe
False,0,0,0,,264,1469,aog,ango1255,{},-4.07758,language,144.028,,Angoram,'Angoram [ango1255][aog]-l-':1,2821,safe
False,0,0,0,,107,6071,tnd,ango1257,{},6.54198,language,-71.9212,,Angosturas Tunebo,'Angosturas Tunebo [ango1257][tnd]-l-':1,8536,definitely endangered
False,0,0,0,,89,22623,aoa,ango1258,{},0.11438,language,6.59486,,Angolar,'Angolar [ango1258][aoa]-l-':1,22885,safe
False,0,0,0,,66,5814,awg,angu1242,{},,language,,,Anguthimri,'Anguthimri [angu1242][awg]-l-':1,8281,extinct
False,7,0,0,,10,5202,blo,anii1245,{},9.11127,language,1.60169,,Anii,"('Akpe [akpe1247]':1,'Ananjubi [anan1238]':1,'Balanka [bala1303]':1,'Gikolodjya [giko1238]':1,'Gilempla [gile1238]':1,'Giseda [gise1241]':1,'Gisème [gise1242]':1)'Anii [anii1245][blo]-l-':1",7615,safe
False,0,0,0,,415,7362,hnh,anii1246,{},-19.0966,language,22.9088,,//Ani,'//Ani [anii1246][hnh]-l-':1,9746,definitely endangered
False,0,0,0,,10,5207,anf,anim1239,{},7.60385,language,0.41962,,Animere,'Animere [anim1239][anf]-l-':1,7625,critically endangered
False,0,0,0,,354,3033,aoi,anin1240,{},-13.99904,language,136.6415,,Anindilyakwa,'Anindilyakwa [anin1240][aoi]-l-':1,4755,vulnerable
False,0,0,0,,151,16472,ypn,anip1235,{},23.591,language,103.733,,Ani Phowa,'Ani Phowa [anip1235][ypn]-l-':1,18467,vulnerable
False,0,0,0,,50,3687,boj,anja1238,{},-5.45899,language,145.717,,Anjam,'Anjam [anja1238][boj]-l-':1,5586,safe
False,6,0,0,,323,2948,aak,anka1246,{},-7.19444,language,145.754,,Ankave,"('Ankai [anka1247]':1,'Bu'u [buuu1245]':1,'Miyatnu [miya1257]':1,'Sawuve [sawu1242]':1,'Wiyagwa [wiya1238]':1,'Wunavai [wuna1250]':1)'Ankave [anka1246][aak]-l-':1",4665,safe
False,2,0,0,,66,3823,amx,anma1239,{},-22.2853,language,133.286,,Anmatyerre,"('Eastern Anmatyerre [east2380]':1,'Western Anmatyerre [west2442]':1)'Anmatyerre [anma1239][amx]-l-':1",5784,safe
False,0,0,0,,264,4554,anj,anor1241,{},-4.98449,language,144.801,,Anor,'Anor [anor1241][anj]-l-':1,6729,safe
False,0,0,0,,256,1447,ans,anse1238,{},6.24999,language,-76.05,,Anserma,'Anserma [anse1238][ans]-l-':1,2778,extinct
False,0,0,0,,21,19293,and,ansu1237,{},-1.7543,language,135.866,,Ansus,'Ansus [ansu1237][and]-l-':1,20621,safe
False,0,0,0,,66,3798,ant,anta1253,{},-27.1152,language,134.838,,Antakarinya,'Antakarinya [anta1253][ant]-l-':1,5728,definitely endangered
False,0,0,0,,21,17971,xmv,anta1255,{},-13.2164,language,49.2402,,Antankarana Malagasy,'Antankarana Malagasy [anta1255][xmv]-l-':1,19690,safe
False,0,0,0,,107,2257,NOCODE_Antioquian,anti1242,{},7.199341,language,-75.342236,,Antioquian,'Antioquian [anti1242]-l-':1,4029,extinct
False,0,0,0,,89,21945,aig,anti1245,{},15.5531,language,-61.3156,,Antigua and Barbuda Creole English,'Antigua and Barbuda Creole English [anti1245][aig]-l-':1,22588,safe
False,4,0,0,,429,5131,anu,anua1242,{},7.57714,language,34.0267,,Anuak,"('Adoyo [adoy1238]':1,'Coro [coro1246]':1,'Lul [lull1238]':1,'Opëno [open1238]':1)'Anuak [anua1242][anu]-l-':1",7429,safe
False,0,0,0,,10,15588,cko,anuf1239,{},10.2839,language,0.56021,,Anufo,'Anufo [anuf1239][cko]-l-':1,17595,safe
False,0,0,0,,21,17675,aui,anuk1239,{},-9.6692,language,149.822,,Anuki,'Anuki [anuk1239][aui]-l-':1,19357,definitely endangered
False,0,0,0,,21,19376,auq,anus1237,{},-2.26271,language,139.502,,Anus,'Anus [anus1237][auq]-l-':1,20739,severely endangered
False,0,0,0,,21,17662,aud,anut1237,{},-11.61,language,169.85,,Anuta,'Anuta [anut1237][aud]-l-':1,19331,safe
False,0,0,0,,151,1245,anl,anuu1241,{},23.3394,language,98.5945,,Anu,'Anu [anuu1241][anl]-l-':1,2437,safe
False,0,0,0,,10,17596,mtb,anyi1244,{},6.1627,language,-4.64232,,Anyin Morofo,'Anyin Morofo [anyi1244][mtb]-l-':1,19248,safe
False,11,0,0,,10,17596,any,anyi1245,{},6.31781,language,-3.30532,,Anyin,"('Abe {Anyin} [abee1243]':1,'Alangua [alan1248]':1,'Ano [anoo1238]':1,'Aowin [aowi1238]':1,'Barabo [bara1359]':1,'Bini {Anyin} [bini1245]':1,'Bona [bona1251]':1,'Djuablin [djua1238]':1,'Indenie [inde1240]':1,'Moronou [moro1280]':1,'Sanvi [sanv1241]':1)'Anyin [anyi1245][any]-l-':1",19247,safe
False,2,0,0,,21,10581,pni,aohe1237,{},0.87404,language,114.127,,Aoheng-Seputan,"('Aoheng [aohe1238]':1,'Seputan [sepu1237]':1)'Aoheng-Seputan [aohe1237][pni]-l-':1",13380,safe
False,5,0,0,,151,6305,njo,aona1235,{},26.3241,language,94.3824,,Ao Naga,"('Changki [chan1311]':1,'Chongli [chon1286]':1,'Dordar [dord1238]':1,'Longla [long1376]':1,'Mongsen Khari [mong1332]':1)'Ao Naga [aona1235][njo]-l-':1",8820,safe
False,0,0,0,,21,17768,aor,aore1237,{},-15.5753,language,167.166,,Aore,'Aore [aore1237][aor]-l-':1,19545,extinct
False,2,0,0,,23,10680,aou,aoua1234,{},26.8,language,105.85,,A'ou,"('Hongfeng Gelao [hong1242]':1,'Nuclear A'ou [aouu1238]':1)'A'ou [aoua1234][aou]-l-':1",13540,safe
False,0,0,0,,152,1264,xap,apal1237,{},,language,,,Apalachee,'Apalachee [apal1237][xap]-l-':1,2483,extinct
False,0,0,0,,21,22441,apo,apal1255,{},-6.29002,language,149.96,,Apalik,'Apalik [apal1255][apo]-l-':1,22790,safe
False,2,0,0,,50,8152,ena,apal1256,{},-5.1727,language,145.023,,Apali,"('Aci [acii1238]':1,'Aki [akii1238]':1)'Apali [apal1256][ena]-l-':1",10840,safe
False,0,0,0,,374,374,apy,apal1257,{},1.49792,language,-54.7457,,Apalaí,'Apalaí [apal1257][apy]-l-':1,1707,vulnerable
False,0,0,0,,383,12461,mip,apas1235,{},17.6143,language,-97.0657,,Apasco-Apoala Mixtec,'Apasco-Apoala Mixtec [apas1235][mip]-l-':1,15048,safe
False,0,0,0,,151,6392,apt,apat1240,{},27.1933,language,93.7284,,Apatani,'Apatani [apat1240][apt]-l-':1,8973,vulnerable
False,0,0,0,,374,3175,NOCODE_Apiaka-Tocantins,apia1247,{},-6.5,language,-49.771729,,Apiaka-Tocantins,'Apiaka-Tocantins [apia1247]-l-':1,4873,extinct
False,0,0,0,,298,6768,api,apia1248,{},-7.84711,language,-57.91,,Apiaká,'Apiaká [apia1248][api]-l-':1,9286,critically endangered
False,0,0,0,,58,2077,apn,apin1244,{},-6.10774,language,-47.6315,,Apinayé,'Apinayé [apin1244][apn]-l-':1,3744,vulnerable
False,5,0,0,,21,15710,app,apma1240,{},-15.8559,language,168.189,,Apma,"('Bwatnapni [bwat1239]':1,'Loltong [lolt1237]':1,'Melsisi [mels1237]':1,'Suru-Bo [suru1260]':1,'Suru-Marani [suru1259]':1)'Apma [apma1240][app]-l-':1",17735,safe
False,1,0,0,,,,kbx,apma1241,{},-4.35147,language,144.085,,Ap Ma,('Kambaramba [kamb1306]':1)'Ap Ma [apma1241][kbx]-l-':1,145,safe
False,0,0,0,,79,2175,NOCODE_Apolista,apol1242,{},-14.83,language,-68.66,,Apolista,'Apolista [apol1242]-l-':1,3900,extinct
False,0,0,0,,395,395,NOCODE_Apoto,apot1235,{},,language,,,Apoto,'Apoto [apot1235]-l-':1,1755,extinct
False,0,0,0,,10,3460,ahp,apro1235,{},5.20273,language,-4.52192,,Aproumu Aizi,'Aproumu Aizi [apro1235][ahp]-l-':1,5220,safe
False,0,0,0,,312,2904,apq,apuc1241,{},12.241,language,92.7965,,A-Pucikwar,'A-Pucikwar [apuc1241][apq]-l-':1,4620,extinct
False,0,0,0,,89,3935,NOCODE_Calabrian-Greek,apul1236,{},,language,,,Apulia-Calabrian Greek,'Apulia-Calabrian Greek [apul1236]-l-':1,5895,safe
False,0,0,0,,79,2171,apu,apur1254,{},-8.21692,language,-66.7714,,Apurinã,'Apurinã [apur1254][apu]-l-':1,3896,definitely endangered
False,3,0,0,,21,17836,apx,aput1237,{},-7.84732,language,126.496,,Aputai,"('Ilputih {Aputai} [ilpu1239]':1,'Lurang [lura1237]':1,'Welemur [wele1238]':1)'Aputai [aput1237][apx]-l-':1",19618,critically endangered
False,0,0,0,,66,3789,ard,arab1267,{},-28.705,language,135.449,,Arabana,'Arabana [arab1267][ard]-l-':1,5711,critically endangered
False,0,0,0,,62,2085,arl,arab1268,{},-1.96126,language,-75.0612,,Arabela,'Arabela [arab1268][arl]-l-':1,3749,severely endangered
False,0,0,0,,37,37,NOCODE_Aracaju,arac1235,{},,language,,,Aracaju,'Aracaju [arac1235]-l-':1,600,extinct
False,0,0,0,,369,1675,NOCODE_Arafundi-Enga-Pidgin,araf1245,{},,language,,,Arafundi-Enga Pidgin,'Arafundi-Enga Pidgin [araf1245]-l-':1,3123,safe
False,4,0,0,,89,16372,arg,arag1245,{},42.4669,language,-0.00919,,Aragonese,"('Central Aragonese [cent1317]':1,'Eastern Aragonese [east2273]':1,'Southern Aragonese [sout2609]':1,'Western Aragonese [west2340]':1)'Aragonese [arag1245][arg]-l-':1",18403,definitely endangered
False,0,0,0,,79,2176,NOCODE_Araicu,arai1239,{},-3.104315,language,-67.2052,,Araicu,'Araicu [arai1239]-l-':1,3901,extinct
False,0,0,0,,21,17764,akr,arak1252,{},-15.632997,language,166.952542,,Araki,'Araki [arak1252][akr]-l-':1,19526,critically endangered
True,0,0,0,,120,120,rkw,arak1254,{},,language,,,Arakwal,'Arakwal [arak1254][rkw]-l-':1,805,extinct
True,0,0,0,,120,120,,arak1256,{},,language,,,Arakanese,'Arakanese [arak1256][mhv]-l-':1,1011,safe
False,3,0,0,,21,10626,atq,aral1243,{},-2.78397,language,119.319,,Aralle-Tabulahan,"('Aralle [aral1244]':1,'Mambi [mamb1308]':1,'Tabulahan [tabu1243]':1)'Aralle-Tabulahan [aral1243][atq]-l-':1",13459,safe
True,0,0,0,,120,120,aam,aram1252,{},-2.90656,language,37.3491,,Aramanik,'Aramanik [aram1252][aam]-l-':1,926,extinct
False,0,0,0,,219,2680,stk,aram1253,{},-8.29593,language,141.445,,Arammba,'Arammba [aram1253][stk]-l-':1,4459,safe
False,1,0,0,,179,1306,jbj,aran1237,{},-2.08016,language,132.983,,Arandai,('Dombano [domb1240]':1)'Arandai [aran1237][jbj]-l-':1,2527,safe
False,0,0,0,,355,18520,aaf,aran1261,{},11.35252,language,75.79538,,Aranadan,'Aranadan [aran1261][aaf]-l-':1,19998,safe
False,0,0,0,,37,37,NOCODE_Aranama,aran1265,{},,language,,,Aranama,'Aranama [aran1265]-l-':1,597,extinct
False,0,0,0,,16,5305,aro,arao1248,{},-12.4242,language,-67.7293,,Araona,'Araona [arao1248][aro]-l-':1,7742,severely endangered
False,0,0,0,,404,5073,arp,arap1274,{},43.3879,language,-108.81,,Arapaho,'Arapaho [arap1274][arp]-l-':1,7343,safe
False,0,0,0,,314,1548,arj,arap1275,{},0.13727,language,-67.7282,,Arapaso,'Arapaso [arap1275][arj]-l-':1,2906,extinct
False,0,0,0,,50,3690,awm,araw1272,{},-5.52787,language,145.903,,Arawum,'Arawum [araw1272][awm]-l-':1,5600,severely endangered
False,0,0,0,,298,6772,awt,araw1273,{},-4.90246,language,-52.5001,,Araweté,'Araweté [araw1273][awt]-l-':1,9299,vulnerable
False,0,0,0,,79,2179,arw,araw1276,{},5.64295,language,-56.9243,,Lokono,'Lokono [araw1276][arw]-l-':1,3908,critically endangered
False,0,0,0,,16,5310,NOCODE_Arazaire,araz1236,{},-13.25,language,-70.8,,Arazaire,'Arazaire [araz1236]-l-':1,7752,extinct
False,4,0,0,,89,2212,aae,arbe1236,{},38.911,language,16.7164,,Arbëreshë Albanian,"('Calabrian Albanian [cala1254]':1,'Campo Marino Albanian [camp1260]':1,'Central Mountain Albanian [cent1955]':1,'Sicilian Albanian [sici1247]':1)'Arbëreshë Albanian [arbe1236][aae]-l-':1",3951,definitely endangered
False,0,0,0,,376,14828,arv,arbo1245,{},4.92183,language,36.7986,,Arbore,'Arbore [arbo1245][arv]-l-':1,16750,definitely endangered
False,0,0,0,,371,3165,aqc,arch1244,{},42.3239,language,46.8267,,Archi,'Archi [arch1244][aqc]-l-':1,4862,definitely endangered
False,0,0,0,,89,8351,NOCODE_Archaic-Norrlandic,arch1246,{},,language,,,Archaic Norrlandic,'Archaic Norrlandic [arch1246]-l-':1,11007,safe
False,2,0,0,,21,19309,alu,area1240,{},-9.20699,language,161.158,,'Are'are,"('Marau Sound [mara1398]':1,'Nuclear 'Are'are [nucl1476]':1)''Are'are [area1240][alu]-l-':1",20650,safe
False,0,0,0,,66,5823,aea,areb1238,{},-16.63548,language,142.63107,,Areba,'Areba [areb1238][aea]-l-':1,8291,extinct
False,0,0,0,,21,20731,mwc,aree1239,{},-9.67147,language,149.999,,Are,'Are [aree1239][mwc]-l-':1,21710,safe
False,0,0,0,,143,4135,aem,arem1240,{},17.7672,language,105.928,,Arem,'Arem [arem1240][aem]-l-':1,6180,severely endangered
False,4,0,0,,214,4444,qxu,areq1237,{},-15.1806,language,-72.6333,,Arequipa-La Unión Quechua,"('Antabamba {Arequipa-La Union Quechua} [anta1257]':1,'Cotahuasi [cota1243]':1,'Highland Arequipa [high1279]':1,'Northern Arequipa [nort2977]':1)'Arequipa-La Unión Quechua [areq1237][qxu]-l-':1",6621,safe
False,0,0,0,,193,1332,aed,arge1236,{},-34.797,language,-59.1798,,Argentine Sign Language,'Argentine Sign Language [arge1236][aed]-l-':1,2632,safe
False,0,0,0,,376,12229,agj,argo1244,{},10.6596,language,39.756,,Argobba,'Argobba [argo1244][agj]-l-':1,14816,critically endangered
False,0,0,0,,21,13096,agf,argu1237,{},-2.645798,language,132.5556,,Arguni,'Arguni [argu1237][agf]-l-':1,15658,vulnerable
False,0,0,0,,21,17705,aqr,arha1237,{},-21.2866,language,165.273,,Arhâ,'Arhâ [arha1237][aqr]-l-':1,19437,critically endangered
False,0,0,0,,21,17705,aok,arho1237,{},-21.3183,language,165.161,,Arhö,'Arhö [arho1237][aok]-l-':1,19436,critically endangered
False,0,0,0,,107,8533,arh,arhu1242,{},10.7018,language,-73.6363,,Arhuaco,'Arhuaco [arhu1242][arh]-l-':1,11311,vulnerable
False,0,0,0,,21,20779,ylu,arib1240,{},-6.65252,language,146.919,,Aribwaung,'Aribwaung [arib1240][ylu]-l-':1,21769,safe
False,0,0,0,,21,20779,laz,arib1241,{},-6.72266,language,146.991,,Aribwatsa,'Aribwatsa [arib1241][laz]-l-':1,21767,extinct
False,2,0,0,,21,20731,aai,arif1239,{},-9.15565,language,149.246,,Arifama-Miniafia,"('Arifama [arif1240]':1,'Miniafia [mini1252]':1)'Arifama-Miniafia [arif1239][aai]-l-':1",21712,safe
False,11,0,0,,10,3449,aqg,arig1246,{},7.56324,language,5.89556,,Arigidi,"('Afa [afaa1238]':1,'Aje [ajee1238]':1,'Arigidí [arig1247]':1,'Erúsú [erus1238]':1,'Ese {Arigidi} [esee1246]':1,'Igasi [igas1238]':1,'Ojo [ojoo1238]':1,'Oyin [oyin1238]':1,'Udo [udoo1238]':1,'Uro [uroo1240]':1,'Òge [ogee1238]':1)'Arigidi [arig1246][aqg]-l-':1",5189,safe
False,0,0,0,,352,3004,aac,arii1243,{},-7.95526,language,142.4,,Ari,'Ari [arii1243][aac]-l-':1,4724,severely endangered
False,0,0,0,,301,4605,ari,arik1262,{},40.6473,language,-98.7158,,Arikara,'Arikara [arik1262][ari]-l-':1,6782,critically endangered
False,0,0,0,,298,1529,ait,arik1264,{},-8.924,language,-63.742,,Arikem,'Arikem [arik1264][ait]-l-':1,2887,extinct
False,0,0,0,,58,649,ark,arik1265,{},-12.4878,language,-62.7261,,Arikapú,'Arikapú [arik1265][ark]-l-':1,2067,critically endangered
False,0,0,0,,147,2422,xrn,arin1243,{},57.0,language,93.0,,Arin,'Arin [arin1243][xrn]-l-':1,4183,extinct
False,0,0,0,,362,3057,luc,arin1244,{},3.56143,language,31.3071,,Aringa,'Aringa [arin1244][luc]-l-':1,4800,safe
False,0,0,0,,66,2154,dth,arit1239,{},-12.50839255,language,142.138748,,Aritinngitigh,'Aritinngitigh [arit1239][dth]-l-':1,3866,extinct
False,1,0,0,,363,1647,NOCODE_Arizona-Tewa,ariz1237,{},35.836667,language,-110.381389,,Arizona Tewa,('Hano {USA} [hano1247]':1)'Arizona Tewa [ariz1237]-l-':1,3066,safe
False,0,0,0,,395,1760,aoh,arma1244,{},2.03332,language,-76.0,,Arma,'Arma [arma1244][aoh]-l-':1,3292,extinct
False,0,0,0,,193,1332,aen,arme1259,{},40.1002,language,44.4767,,Armenian Sign Language,'Armenian Sign Language [arme1259][aen]-l-':1,2638,safe
False,2,0,0,,89,14160,rup,arom1237,{},42.0646,language,22.6464,,Aromanian,"('Armaneshti [arma1245]':1,'Rramaneshti [rram1234]':1)'Aromanian [arom1237][rup]-l-':1",16370,definitely endangered
False,0,0,0,,21,21781,aps,arop1242,{},-3.06984,language,142.12,,Arop-Sissano,'Arop-Sissano [arop1242][aps]-l-':1,22468,safe
False,2,0,0,,21,19385,apr,arop1243,{},-5.31671,language,147.103,,Arop-Lokep,"('Arop [arop1244]':1,'Lokep [loke1237]':1)'Arop-Lokep [arop1243][apr]-l-':1",20751,safe
False,2,0,0,,21,17648,aia,aros1241,{},-10.2441,language,161.432,,Arosi,"('Nuclear Arosi [nucl1473]':1,'Wango [wang1296]':1)'Arosi [aros1241][aia]-l-':1",19312,safe
False,0,0,0,,21,3534,atz,arta1239,{},16.4185,language,121.656,,Arta,'Arta [arta1239][atz]-l-':1,5346,safe
False,0,0,0,,264,6736,msy,arua1260,{},-4.28957,language,144.842,,Aruamu,'Aruamu [arua1260][msy]-l-':1,9256,safe
False,1,0,0,,298,4603,arx,arua1261,{},-12.1186,language,-62.4357,,Aruá (Rondonia State),('Aruáshi [arua1262]':1)'Aruá {Rondonia State} [arua1261][arx]-l-':1,6780,severely endangered
False,0,0,0,,225,225,aru,arua1263,{},-5.5,language,-67.98,,Aruá (Amazonas State),'Aruá {Amazonas State} [arua1263][aru]-l-':1,1394,extinct
False,0,0,0,,79,2177,NOCODE_Aruan,arua1264,{},-0.608631,language,-50.123291,,Aruan,'Aruan [arua1264]-l-':1,3905,extinct
False,0,0,0,,37,37,NOCODE_Aruba,arub1238,{},,language,,,Aruba,'Aruba [arub1238]-l-':1,605,extinct
False,0,0,0,,353,4736,aur,arue1240,{},-3.37841,language,142.715,,Aruek,'Aruek [arue1240][aur]-l-':1,6915,safe
False,0,0,0,,353,3019,lsr,aruo1240,{},-3.45782,language,142.478,,Srenge,'Srenge [aruo1240][lsr]-l-':1,4742,safe
False,0,0,0,,395,395,NOCODE_Arusha,arus1242,{},,language,,,Arusha,'Arusha [arus1242]-l-':1,1744,extinct
False,0,0,0,,,,atx,arut1244,{},4.20057,language,-63.1202,,Arutani,'Arutani [arut1244][atx]-l-':1,392,critically endangered
False,3,0,0,,89,2212,aat,arva1236,{},38.283,language,23.3703,,Arvanitika Albanian,"('Northwestern Arvanitika [nort2603]':1,'South Central Arvanitika [sout2608]':1,'Thracean Arvanitika [thra1249]':1)'Arvanitika Albanian [arva1236][aat]-l-':1",3949,severely endangered
False,0,0,0,,50,5493,mtv,asar1240,{},-5.68263,language,146.508,,Asaro'o,'Asaro'o [asar1240][mtv]-l-':1,8021,safe
False,0,0,0,,50,5596,asd,asas1240,{},-5.69345,language,145.549,,Asas,'Asas [asas1240][asd]-l-':1,8144,safe
False,0,0,0,,79,8313,cni,asha1243,{},-11.9311,language,-73.9073,,Asháninka,'Asháninka [asha1243][cni]-l-':1,10971,vulnerable
False,0,0,0,,10,10025,ahs,ashe1269,{},9.36574,language,7.39443,,Ashe,'Ashe [ashe1269][ahs]-l-':1,12697,safe
False,0,0,0,,79,10970,prq,ashe1272,{},-10.9777,language,-74.9153,,Ashéninka Perené,'Ashéninka Perené [ashe1272][prq]-l-':1,13707,vulnerable
False,0,0,0,,79,10970,cjo,ashe1273,{},-10.7583,language,-74.2014,,Ashéninka Pajonal,'Ashéninka Pajonal [ashe1273][cjo]-l-':1,13704,vulnerable
False,3,0,0,,89,3959,ask,ashk1246,{},34.84277,language,70.37453,,Ashkun,"('Ashuruveri [ashu1242]':1,'Gramsukraviri [gram1239]':1,'Suruviri [suru1257]':1)'Ashkun [ashk1246][ask]-l-':1",5977,definitely endangered
False,7,0,0,,151,14377,csh,asho1236,{},21.393,language,93.5069,,Asho Chin,"('Chittagong [chit1280]':1,'Khyang [khya1239]':1,'Lemyo [lemy1239]':1,'Minbu [minb1243]':1,'Saingbaun [sain1244]':1,'Sandoway [sand1269]':1,'Thayetmyo [thay1247]':1)'Asho Chin [asho1236][csh]-l-':1",16439,safe
False,2,0,0,,89,18373,atn,asht1244,{},37.7469,language,48.6808,,Ashtiani,"('Nuclear Ashtiani [nucl1273]':1,'Tafresh [tafr1239]':1)'Ashtiani [asht1244][atn]-l-':1",19885,definitely endangered
False,3,0,0,,21,17786,asl,asil1242,{},-3.67302,language,127.952,,Asilulu,"('Negeri Lima [nege1241]':1,'Nuclear Asilulu [nucl1531]':1,'Ureng [uren1238]':1)'Asilulu [asil1242][asl]-l-':1",19573,safe
False,0,0,0,,64,667,eiv,asko1238,{},-6.22539,language,155.307,,Askopan,'Askopan [asko1238][eiv]-l-':1,2092,safe
False,0,0,0,,362,3049,asv,asoa1238,{},2.26818,language,26.7198,,Asoa,'Asoa [asoa1238][asv]-l-':1,4779,safe
False,4,0,0,,89,13928,asm,assa1263,{},26.0876,language,91.2932,,Assamese,"('Jharwa [jhar1240]':1,'Mayang [maya1277]':1,'Standard Assamese [stan1302]':1,'Western Assamese [west2383]':1)'Assamese [assa1263][asm]-l-':1",16192,safe
True,0,0,0,,120,120,xss,assa1266,{},56.0,language,94.0,,Assan,'Assan [assa1266][xss]-l-':1,1149,extinct
False,6,0,0,,271,2835,sjg,assa1269,{},13.9592,language,22.6393,,Assangori,"('Erenga [eren1239]':1,'Girga {Assangori} [girg1241]':1,'Murasi [mura1270]':1,'Sebunkik [sebu1242]':1,'Sungor [sung1270]':1,'Walad Dulla [wala1265]':1)'Assangori [assa1269][sjg]-l-':1",4573,safe
False,0,0,0,,166,4292,asb,assi1247,{},49.2923,language,-106.068,,Assiniboine,'Assiniboine [assi1247][asb]-l-':1,6437,critically endangered
False,0,0,0,,21,13094,asz,asss1237,{},-0.75267,language,131.728,,As,'As [asss1237][asz]-l-':1,15653,vulnerable
False,30,0,0,,376,16732,aii,assy1241,{},36.75,language,43.0,,Assyrian Neo-Aramaic,"(('Anhar [anha1242]':1,'Mar Bishu [marb1243]':1,'Nochiya [noch1239]':1,'Tergawar [terg1238]':1)'Central Group [cent2218]':1,'Iranian Koine [iran1268]':1,('Baz [bazz1238]':1,'Dez [dezz1235]':1,'Gavar {Aramaic} [gava1245]':1,'Jilu [jilu1238]':1,'Qudshanis [quds1238]':1,'Salamas [sala1281]':1,'Upper Barwari [uppe1449]':1,'Van {Aramaic} [vann1248]':1)'Northern Group [nort3096]':1,('Aradhin [arad1238]':1,'Benatha [bena1272]':1,'Daudiya [daud1238]':1,'Inishke [inis1238]':1,'Tina [tina1254]':1)'Sapna cluster [sapn1238]':1,('Sipurghan [sipu1244]':1,'Solduz [sold1238]':1,'Urmi [urmi1250]':1)'Urmian group [urmi1249]':1,('Lewin [lewi1238]':1,'Lower Barwari [lowe1435]':1,'Tal {Aramaic} [tall1254]':1,'Tkhuma [tkhu1242]':1)'Western Group [west2765]':1)'Assyrian Neo-Aramaic [assy1241][aii]-l-':1",18594,definitely endangered
False,4,0,0,,89,21067,ast,astu1245,{},42.4181,language,-6.02227,,Asturian,"('Central Asturian [cent1956]':1,'Eastern Asturian [east2272]':1,'Leonese [leon1250]':1,'Western Asturian [west2339]':1)'Asturian [astu1245][ast]-l-':1",21955,definitely endangered
False,0,0,0,,50,8161,psa,asue1235,{},-5.98341,language,139.123,,Asue Awyu,'Asue Awyu [asue1235][psa]-l-':1,10868,safe
False,0,0,0,,21,15707,aua,asum1237,{},-11.2969,language,166.499,,Asumboa,'Asumboa [asum1237][aua]-l-':1,17729,severely endangered
False,0,0,0,,10,7584,aum,asun1235,{},10.0849,language,5.42081,,Asu (Nigeria),'Asu {Nigeria} [asun1235][aum]-l-':1,10150,safe
False,0,0,0,,383,15017,zoo,asun1236,{},16.8762,language,-96.8704,,Asunción Mixtepec Zapotec,'Asunción Mixtepec Zapotec [asun1236][zoo]-l-':1,16930,safe
False,2,0,0,,143,8690,asr,asur1254,{},21.5721,language,83.4562,,Asuri,"('Brijia [brij1240]':1,'Manjhi [manj1248]':1)'Asuri [asur1254][asr]-l-':1",11428,definitely endangered
False,0,0,0,,10,17318,asa,asut1235,{},-4.17978,language,37.8323,,Asu (Tanzania),'Asu {Tanzania} [asut1235][asa]-l-':1,18903,safe
False,0,0,0,,21,10540,atm,ataa1240,{},9.715,language,122.9,,Ata,'Ata [ataa1240][atm]-l-':1,13269,safe
False,0,0,0,,,,NOCODE_Atacame,atac1235,{},0.834931,language,-79.778137,,Atacame,'Atacame [atac1235]-l-':1,360,extinct
False,0,0,0,,,,aqp,atak1252,{},30.9121,language,-93.0827,,Atakapa,'Atakapa [atak1252][aqp]-l-':1,296,extinct
False,0,0,0,,66,3859,amz,atam1239,{},-11.0018,language,142.273,,Atampaya,'Atampaya [atam1239][amz]-l-':1,5811,extinct
False,0,0,0,,21,15822,atd,atam1240,{},7.7789,language,125.499,,Ata Manobo,'Ata Manobo [atam1240][atd]-l-':1,17891,safe
False,0,0,0,,383,12470,mib,atat1238,{},17.07133,language,-97.67753,,Atatláhuca Mixtec,'Atatláhuca Mixtec [atat1238][mib]-l-':1,15074,safe
False,2,0,0,,21,1934,tay,atay1247,{},24.5209,language,121.388,,Atayal,"('Mayrinax [mayr1237]':1,'Sqoleq [sqol1237]':1)'Atayal [atay1247][tay]-l-':1",3550,vulnerable
False,0,0,0,,50,8150,ate,atem1241,{},-5.08137,language,144.806,,Mand,'Mand [atem1241][ate]-l-':1,10835,definitely endangered
False,0,0,0,,66,5822,NOCODE_Athima,athi1234,{},,language,,,Athima,'Athima [athi1234]-l-':1,8287,extinct
False,0,0,0,,151,11705,aph,athp1241,{},26.8794,language,87.3296,,Athpariya,'Athpariya [athp1241][aph]-l-':1,14481,definitely endangered
False,2,0,0,,21,1933,atk,atii1237,{},11.1539,language,122.512,,Ati,"('Barotac Viejo Nagpana [baro1255]':1,'Malay {Ati} [mala1492]':1)'Ati [atii1237][atk]-l-':1",3540,safe
False,0,0,0,,404,3359,atj,atik1240,{},47.9555,language,-73.7989,,Atikamekw,'Atikamekw [atik1240][atj]-l-':1,5078,vulnerable
False,0,0,0,,331,331,aqm,atoh1238,{},-6.27123,language,138.666,,Atohwaim,'Atohwaim [atoh1238][aqm]-l-':1,1573,safe
False,0,0,0,,151,4235,aot,aton1241,{},25.346508,language,90.658722,,Atong (India),'Atong {India} [aton1241][aot]-l-':1,6377,severely endangered
False,0,0,0,,10,15530,ato,aton1242,{},6.03539,language,9.72121,,Atong,'Atong [aton1242][ato]-l-':1,17502,safe
False,0,0,0,,79,3904,aox,ator1244,{},2.481,language,-60.286,,Atorada,'Atorada [ator1244][aox]-l-':1,5854,safe
False,0,0,0,,10,12958,cch,atsa1241,{},9.95914,language,8.48301,,Atsam,'Atsam [atsa1241][cch]-l-':1,15573,safe
False,0,0,0,,16,5310,atc,atsa1242,{},-14.1666,language,-69.5,,Atsahuaca,'Atsahuaca [atsa1242][atc]-l-':1,7751,extinct
False,0,0,0,,45,45,atw,atsu1245,{},40.4271,language,-120.661,,Atsugewi,'Atsugewi [atsu1245][atw]-l-':1,619,extinct
False,0,0,0,,355,18521,pkr,atta1243,{},,language,,,Attapady Kurumba,'Attapady Kurumba [atta1243][pkr]-l-':1,20017,safe
False,3,0,0,,10,3457,ati,atti1239,{},5.9977,language,-3.8209,,Attié,"('Bodin [bodi1251]':1,'Ketin [keti1245]':1,'Naindin [nain1239]':1)'Attié [atti1239][ati]-l-':1",5212,safe
True,0,0,0,,120,120,,atue1238,{},,language,,,Atuence,'Atuence [atue1238][atf]-l-':1,861,safe
False,0,0,0,,383,7229,ocu,atzi1235,{},19.3871,language,-99.9239,,Atzingo Matlatzinca,'Atzingo Matlatzinca [atzi1235][ocu]-l-':1,9680,severely endangered
False,0,0,0,,21,17677,kud,auhe1237,{},-10.0959,language,151.002,,'Auhelawa,''Auhelawa [auhe1237][kud]-l-':1,19370,safe
False,2,0,0,,21,19479,aul,aulu1238,{},-16.3579,language,167.697,,Aulua,"('Boinelang [boin1237]':1,'Onesso [ones1240]':1)'Aulua [aulu1238][aul]-l-':1",20864,safe
False,0,0,0,,298,14702,aux,aura1243,{},-4.137,language,-46.792,,Aurê y Aurá,'Aurê y Aurá [aura1243][aux]-l-':1,16610,extinct
False,0,0,0,,10,18837,auh,aush1241,{},-11.6295,language,29.0168,,Aushi,'Aushi [aush1241][auh]-l-':1,20146,safe
False,0,0,0,,62,661,avs,aush1242,{},-3.3196,language,-74.5411,,Aushiri,'Aushiri [aush1242][avs]-l-':1,2082,extinct
False,0,0,0,,193,2631,asq,aust1252,{},48.1197,language,16.225,,Austrian Sign Language,'Austrian Sign Language [aust1252][asq]-l-':1,4396,safe
False,0,0,0,,193,1331,asw,aust1253,{},-25.0,language,135.0,,Australian Aborigines Sign Language,'Australian Aborigines Sign Language [aust1253][asw]-l-':1,2602,extinct
False,0,0,0,,193,6507,asf,aust1271,{},-30.0,language,145.0,,Australian Sign Language,'Australian Sign Language [aust1271][asf]-l-':1,9135,safe
False,4,0,0,,21,22998,aut,aust1304,{},-23.3843,language,-149.462,,Austral,"('Raivavae [raiv1237]':1,'Rimatara [rima1237]':1,'Rurutu [ruru1237]':1,'Tubuai [tubu1240]':1)'Austral [aust1304][aut]-l-':1",23124,definitely endangered
False,0,0,0,,353,1618,avt,auuu1241,{},-3.53277,language,142.105,,Au,'Au [auuu1241][avt]-l-':1,3023,safe
True,0,0,0,,120,120,,auve1240,{},,language,,,Auvergnat,'Auvergnat [auve1240][auv]-l-':1,1039,safe
False,0,0,0,,317,1555,smf,auwe1239,{},-3.33662,language,141.254,,Auwe,'Auwe [auwe1239][smf]-l-':1,2921,safe
False,0,0,0,,50,2017,auu,auye1238,{},-3.43705,language,136.096,,Auye,'Auye [auye1238][auu]-l-':1,3642,vulnerable
False,0,0,0,,376,14970,auo,auyo1240,{},9.85747,language,11.322,,Auyokawa,'Auyokawa [auyo1240][auo]-l-':1,16883,extinct
False,0,0,0,,298,9302,avv,avac1239,{},-13.6081,language,-48.1336,,Avá-Canoeiro,'Avá-Canoeiro [avac1239][avv]-l-':1,12060,critically endangered
False,14,0,0,,371,3166,ava,avar1256,{},41.7047,language,46.558,,Avar,"('Ancux [ancu1238]':1,'Andalal-Gxdatl [anda1281]':1,'Bacadin [baca1241]':1,'Batlux [batl1238]':1,'Hid [hidd1238]':1,'Karax [kara1473]':1,'Kaxib [kaxi1241]':1,'Keleb [kele1253]':1,'Kunzakh [kunz1243]':1,'Salatav [sala1265]':1,'Shulanin [shul1242]':1,'Untib [unti1238]':1,'Zakataly [zaka1239]':1,'Zaqatala [zaqa1242]':1)'Avar [avar1256][ava]-l-':1",4864,vulnerable
False,0,0,0,,10,5206,avn,avat1244,{},6.8688,language,0.41314,,Avatime,'Avatime [avat1244][avn]-l-':1,7623,safe
False,1,0,0,,21,22442,avb,avau1237,{},-6.24342,language,150.427,,Avau,('Gasmata [gasm1237]':1)'Avau [avau1237][avb]-l-':1,22791,safe
False,0,0,0,,89,2223,ave,aves1237,{},31.541,language,53.633,,Avestan,'Avestan [aves1237][ave]-l-':1,3972,extinct
False,0,0,0,,10,5210,avi,avik1243,{},5.15838,language,-5.2529,,Avikam,'Avikam [avik1243][avi]-l-':1,7632,safe
False,4,0,0,,362,3057,avu,avok1242,{},4.38639,language,29.9379,,Avokaya,"('Ajugu [ajug1238]':1,'Avokaya Pur [avok1243]':1,'Northern Ogambi [nort2812]':1,'Ojila [ojil1238]':1)'Avokaya [avok1242][avu]-l-':1",4802,safe
False,0,0,0,,21,21834,NOCODE_Avok,avok1244,{},,language,,,Avok,'Avok [avok1244]-l-':1,22524,safe
False,3,0,0,,66,8222,awk,awab1243,{},-33.12847,language,151.43555,,Awabakal,"('Awabagal [awab1244]':1,'Cameeragal [came1251]':1,'Wonarua [wona1238]':1)'Awabakal [awab1243][awk]-l-':1",10939,extinct
False,0,0,0,,143,11448,vwa,awac1238,{},22.75,language,99.4833,,Ximeng-Menglian Awa,'Ximeng-Menglian Awa [awac1238][vwa]-l-':1,14290,safe
False,0,0,0,,289,1512,kwi,awac1239,{},1.21652,language,-78.3401,,Awa-Cuaiquer,'Awa-Cuaiquer [awac1239][kwi]-l-':1,2868,critically endangered
False,5,0,0,,89,8459,awa,awad1243,{},27.5907,language,82.4663,,Awadhi,"('Gangapari [gang1265]':1,'Mirzapuri [mirz1238]':1,'Pardesi [pard1244]':1,'Tharu [thar1280]':1,'Uttari [utta1238]':1)'Awadhi [awad1243][awa]-l-':1",11180,safe
False,5,0,0,,21,21742,bcu,awad1244,{},-5.59896,language,146.355,,Awad Bing,"('Biliau [bili1252]':1,'Galeg [gale1258]':1,'Suit [suit1237]':1,'Yamai [yama1259]':1,'Yori [yori1237]':1)'Awad Bing [awad1244][bcu]-l-':1",22450,safe
False,0,0,0,,10,15148,awo,awak1250,{},9.86334,language,11.3291,,Awak,'Awak [awak1250][awo]-l-':1,17056,safe
False,4,0,0,,50,5521,awb,awap1236,{},-6.65534,language,145.714,,Awa (Papua New Guinea),"('Ilakia [ilak1239]':1,'Northeast Awa [nort2919]':1,'South Awa [sout2942]':1,'Tauna [taun1251]':1)'Awa {Papua New Guinea} [awap1236][awb]-l-':1",8067,safe
False,0,0,0,,50,5482,awx,awar1248,{},-6.16986,language,146.372,,Awara,'Awara [awar1248][awx]-l-':1,8008,safe
False,2,0,0,,264,6737,aya,awar1249,{},-4.13554,language,144.836,,Awar,"('Nubia [nubi1252]':1,'Nuclear Awar [nucl1639]':1)'Awar [awar1249][aya]-l-':1",9258,safe
False,0,0,0,,282,282,awh,awbo1238,{},-5.05875,language,139.724,,Awbono,'Awbono [awbo1238][awh]-l-':1,1498,safe
False,0,0,0,,376,16759,bob,awee1242,{},-1.40124,language,41.234,,Aweer,'Aweer [awee1242][bob]-l-':1,18615,definitely endangered
False,0,0,0,,85,717,awr,awer1241,{},-2.71886,language,136.063,,Awera,'Awera [awer1241][awr]-l-':1,2182,vulnerable
False,0,0,0,,298,2880,awe,awet1244,{},-12.9336,language,-53.5852,,Awetí,'Awetí [awet1244][awe]-l-':1,4599,vulnerable
False,0,0,0,,10,17506,azo,awin1248,{},5.88362,language,10.264,,Awing,'Awing [awin1248][azo]-l-':1,19176,safe
False,0,0,0,,50,5520,auy,awiy1238,{},-6.54079,language,145.76,,Awiyaana,'Awiyaana [awiy1238][auy]-l-':1,8065,safe
False,0,0,0,,376,1712,auj,awji1241,{},29.2341,language,21.1819,,Awjilah-Foqaha,'Awjilah-Foqaha [awji1241][auj]-l-':1,3198,severely endangered
False,0,0,0,,376,3202,awn,awng1244,{},10.9819,language,36.6916,,Awngi,'Awngi [awng1244][awn]-l-':1,4935,safe
False,0,0,0,,142,1213,kmn,awtu1239,{},-3.53129,language,141.928,,Awtuw,'Awtuw [awtu1239][kmn]-l-':1,2370,safe
False,0,0,0,,142,1219,aww,awun1245,{},-3.79671,language,141.999,,Auwon,'Auwon [awun1245][aww]-l-':1,2379,safe
False,3,0,0,,10,12972,afu,awut1241,{},5.42441,language,-0.59545,,Awutu,"('Efutu [efut1241]':1,'Nuclear Awutu [nucl1351]':1,'Senya [seny1238]':1)'Awutu [awut1241][afu]-l-':1",15591,safe
False,2,0,0,,151,14429,yiu,awuu1235,{},25.395,language,103.306,,Awu = Lope,"('Northern Awu Yi [nort2713]':1,'Southern Awu Yi [sout2719]':1)'Awu = Lope [awuu1235][yiu]-l-':1",16478,safe
False,0,0,0,,317,1556,auw,awyi1241,{},-3.00564,language,140.604,,Awyi,'Awyi [awyi1241][auw]-l-':1,2929,vulnerable
False,0,0,0,,21,21834,ahb,axam1237,{},-16.4838,language,167.707,,Axamb,'Axamb [axam1237][ahb]-l-':1,22525,safe
False,0,0,0,,151,16473,yix,axiy1235,{},24.6009,language,103.713,,Axi Yi,'Axi Yi [axiy1235][yix]-l-':1,18470,safe
False,0,0,0,,66,5828,ayd,ayab1239,{},-14.6652,language,142.893,,Yintyinka-Ayabadhu,'Yintyinka-Ayabadhu [ayab1239][ayd]-l-':1,8299,extinct
False,2,0,0,,214,4444,quy,ayac1239,{},-13.84714,language,-74.32246,,Ayacucho Quechua,"('Andahuaylas [anda1285]':1,'Huancavelica [huan1249]':1)'Ayacucho Quechua [ayac1239][quy]-l-':1",6622,definitely endangered
False,0,0,0,,383,12460,vmy,ayau1235,{},18.0993,language,-96.5952,,Ayautla Mazatec,'Ayautla Mazatec [ayau1235][vmy]-l-':1,15045,vulnerable
False,0,0,0,,10,5188,aye,ayer1245,{},7.52206,language,6.01979,,Ayere,'Ayere [ayer1245][aye]-l-':1,7562,safe
True,0,0,0,,120,120,ayx,ayic1234,{},27.1213,language,98.8684,,Ayi (China),'Ayi {China} [ayic1234][ayx]-l-':1,821,safe
False,0,0,0,,142,4105,ayq,ayip1235,{},-3.95946,language,142.407,,Ayi (Papua New Guinea),'Ayi {Papua New Guinea} [ayip1235][ayq]-l-':1,6137,safe
False,0,0,0,,21,13122,nfl,ayiw1239,{},-10.282595,language,166.328715,,Ayiwo,'Ayiwo [ayiw1239][nfl]-l-':1,15702,safe
False,0,0,0,,151,21118,yyz,ayiz1244,{},25.0,language,103.7,,Ayizi,'Ayizi [ayiz1244][yyz]-l-':1,22029,critically endangered
False,4,0,0,,10,5214,ayb,ayiz1245,{},6.62654,language,2.20552,,Ayizo Gbe,"('Ayizo-Kobe [ayiz1248]':1,'Ayizo-Seto [ayiz1246]':1,'Ayizo-Tori [ayiz1247]':1,'Kadagbe [kada1283]':1)'Ayizo Gbe [ayiz1245][ayb]-l-':1",7656,safe
False,0,0,0,,383,15017,zaf,ayoq1235,{},16.6633,language,-96.8575,,Ayoquesco Zapotec,'Ayoquesco Zapotec [ayoq1235][zaf]-l-':1,16942,safe
False,1,0,0,,129,1193,ayo,ayor1240,{},-19.220055,language,-60.217495,,Ayoreo,('Tsiracua [tsir1238]':1)'Ayoreo [ayor1240][ayo]-l-':1,2351,definitely endangered
False,0,0,0,,383,12464,miy,ayut1236,{},16.8833,language,-98.9916,,Ayutla Mixtec,'Ayutla Mixtec [ayut1236][miy]-l-':1,15055,safe
False,0,0,0,,10,7507,ayu,ayuu1242,{},9.2634,language,8.60225,,Ayu,'Ayu [ayuu1242][ayu]-l-':1,10030,safe
False,0,0,0,,151,11618,aza,azha1235,{},23.9,language,104.15,,Azha,'Azha [azha1235][aza]-l-':1,14426,safe
False,0,0,0,,151,16473,yiz,azhe1235,{},24.405,language,103.441,,Azhe,'Azhe [azhe1235][yiz]-l-':1,18469,safe
False,0,0,0,,383,7228,tpc,azoy1236,{},16.7584,language,-98.5241,,Azoyú Me'phaa,'Azoyú Me'phaa [azoy1236][tpc]-l-':1,9678,safe
False,2,0,0,,10,7523,bvj,baan1241,{},4.66709,language,7.30065,,Baan,"('Ka-Ban [kaba1279]':1,'Kesari [kesa1243]':1)'Baan [baan1241][bvj]-l-':1",10055,safe
False,0,0,0,,10,12954,bqx,baan1242,{},10.8083,language,5.7261,,Baangi,'Baangi [baan1242][bqx]-l-':1,15569,safe
False,0,0,0,,10,7439,bba,baat1238,{},9.63186,language,2.99607,,Baatonum,'Baatonum [baat1238][bba]-l-':1,9879,safe
False,0,0,0,,10,10016,NOCODE_Baazem,baaz1234,{},6.80235,language,9.97124,,Baazem,'Baazem [baaz1234]-l-':1,12677,safe
False,0,0,0,,10,19126,bbm,baba1263,{},1.79475,language,23.5851,,Babango,'Babango [baba1263][bbm]-l-':1,20455,safe
False,0,0,0,,10,19169,bbw,baba1264,{},6.11222,language,10.5216,,Baba,'Baba [baba1264][bbw]-l-':1,20504,safe
False,0,0,0,,10,15535,bbk,baba1266,{},5.97863,language,10.2869,,Babanki,'Babanki [baba1266][bbk]-l-':1,17531,safe
False,0,0,0,,21,10620,mbf,baba1267,{},1.75414,language,103.076,,Baba Malay,'Baba Malay [baba1267][mbf]-l-':1,13439,safe
False,6,0,0,,21,22486,baa,baba1268,{},-7.22281,language,157.149,,Babatana,"('Avasö [avas1237]':1,'Katazi [kata1267]':1,'Kuboro [kubo1243]':1,'Lömaumbi [loma1262]':1,'Nuclear Babatana [nucl1494]':1,'Sengan [seng1280]':1)'Babatana [baba1268][baa]-l-':1",22817,safe
False,0,0,0,,376,16658,bbz,baba1273,{},12.7617,language,16.6925,,Babalia Creole Arabic,'Babalia Creole Arabic [baba1273][bbz]-l-':1,18569,safe
False,0,0,0,,196,4403,bcr,babi1235,{},55.0997,language,-126.41,,Babine,'Babine [babi1235][bcr]-l-':1,6565,severely endangered
False,2,0,0,,21,3554,bzg,babu1240,{},24.0017,language,120.585,,Babuza,"('Poavosa [poav1237]':1,'Taokas [taok1237]':1)'Babuza [babu1240][bzg]-l-':1",5398,extinct
False,0,0,0,,21,15990,btj,baca1243,{},-0.62275,language,127.49,,Bacanese Malay,'Bacanese Malay [baca1243][btj]-l-':1,18104,safe
False,0,0,0,,376,9572,NOCODE_Bacama-Yimburu,baca1245,{},,language,,,Bacama-Yimburu,'Bacama-Yimburu [baca1245]-l-':1,12321,safe
False,3,0,0,,376,9572,bcy,baca1246,{},9.53072,language,12.0416,,Bacama,"('Mulyen [muly1238]':1,'Opalo [opal1238]':1,'Wa-Duku [wadu1238]':1)'Bacama [baca1246][bcy]-l-':1",12327,safe
False,0,0,0,,89,6027,xbc,bact1239,{},,language,,,Bactrian,'Bactrian [bact1239][xbc]-l-':1,8512,extinct
False,0,0,0,,355,6950,bfq,bada1257,{},11.3094,language,76.5974,,Badaga,'Badaga [bada1257][bfq]-l-':1,9374,definitely endangered
False,2,0,0,,10,12880,bau,bada1258,{},9.62456,language,9.95,,Bada (Nigeria),"('Galamkya [gala1266]':1,'Mbat {Nigeria} [mbat1251]':1)'Bada {Nigeria} [bada1258][bau]-l-':1",15407,safe
False,2,0,0,,21,13518,bhz,bada1261,{},-1.80249,language,120.319,,Bada (Indonesia),"('Ako {Indonesia} [akoo1250]':1,'Bada [bada1262]':1)'Bada {Indonesia} [bada1261][bhz]-l-':1",16059,safe
False,0,0,0,,395,1776,bdz,bade1240,{},35.2655,language,72.6823,,Badeshi,'Badeshi [bade1240][bdz]-l-':1,3314,extinct
False,4,0,0,,376,12385,bde,bade1248,{},12.789,language,10.6557,,Bade,"('Gashua Bade [gash1250]':1,'Shirawa [shir1268]':1,'Southern Bade [sout3053]':1,'Western Bade [west2711]':1)'Bade [bade1248][bde]-l-':1",14971,vulnerable
False,0,0,0,,66,3831,bia,badi1246,{},-29.0647,language,117.246,,Badimaya,'Badimaya [badi1246][bia]-l-':1,5801,safe
False,0,0,0,,219,4470,khd,badi1247,{},-8.85301,language,140.753,,Bädi Kanum,'Bädi Kanum [badi1247][khd]-l-':1,6681,safe
False,0,0,0,,21,5373,bac,badu1237,{},-6.35359,language,106.177,,Badui,'Badui [badu1237][bac]-l-':1,7884,safe
False,0,0,0,,10,5234,pbp,bady1239,{},12.6425,language,-13.4759,,Jaad-Badyara,'Jaad-Badyara [bady1239][pbp]-l-':1,7706,severely endangered
False,0,0,0,,21,19308,bvd,baeg1237,{},-8.49014,language,160.771,,Baeggu,'Baeggu [baeg1237][bvd]-l-':1,20639,safe
False,0,0,0,,21,19308,bvc,bael1237,{},-8.41627,language,160.721,,Baelelea,'Baelelea [bael1237][bvc]-l-':1,20645,safe
False,0,0,0,,37,37,NOCODE_Baenan,baen1237,{},,language,,,Baenan,'Baenan [baen1237]-l-':1,577,extinct
False,3,0,0,,21,15715,btr,baet1237,{},-15.2574,language,168.159,,Baetora,"('Narovorovo [naro1250]':1,'Nasawa [nasa1241]':1,'Talise {Vanuatu} [tali1260]':1)'Baetora [baet1237][btr]-l-':1",17752,safe
False,2,0,0,,10,17390,bwt,bafa1247,{},4.53307,language,9.522,,Bafaw-Balong,"('Bafaw [bafa1248]':1,'Balong [balo1263]':1)'Bafaw-Balong [bafa1247][bwt]-l-':1",19002,safe
False,0,0,0,,10,19170,bfj,bafa1249,{},5.84612,language,10.4518,,Bafanji,'Bafanji [bafa1249][bfj]-l-':1,20508,safe
False,2,0,0,,10,17392,ksf,bafi1243,{},4.72603,language,11.0982,,Bafia,"('Bape [bape1238]':1,'Kpa [kpaa1242]':1)'Bafia [bafi1243][ksf]-l-':1",19005,safe
False,0,0,0,,10,15504,NOCODE_Bafoto,bafo1235,{},1.19,language,19.76,,Bafoto,'Bafoto [bafo1235]-l-':1,17467,safe
False,2,0,0,,10,19175,bfd,bafu1246,{},6.14153,language,10.1194,,Bafut,"('Bufe [bufe1238]':1,'Nuclear Bafut [nucl1413]':1)'Bafut [bafu1246][bfd]-l-':1",20525,safe
False,0,0,0,,10,1900,bmd,baga1270,{},10.76747,language,-14.60521,,Baga Manduri,'Baga Manduri [baga1270][bmd]-l-':1,3480,safe
True,0,0,0,,120,120,bqf,baga1271,{},9.951,language,-12.887,,Baga Kaloum,'Baga Kaloum [baga1271][bqf]-l-':1,1014,extinct
False,1,0,0,,10,1900,bsp,baga1272,{},10.4793,language,-14.4756,,Baga Sitemu,('Marara [mara1388]':1)'Baga Sitemu [baga1272][bsp]-l-':1,3482,severely endangered
False,0,0,0,,10,1900,bgo,baga1273,{},10.1286,language,-13.947,,Baga Koga,'Baga Koga [baga1273][bgo]-l-':1,3479,safe
True,0,0,0,,120,120,bsv,baga1274,{},9.98865,language,-13.9054,,Baga Sobané,'Baga Sobané [baga1274][bsv]-l-':1,899,extinct
False,0,0,0,,10,3474,bcg,baga1275,{},10.5271,language,-14.6111,,Baga Mboteni-Binari,'Baga Mboteni-Binari [baga1275][bcg]-l-':1,5239,definitely endangered
True,0,0,0,,120,120,bgm,baga1276,{},12.27246,language,-12.07358,,Baga Mboteni,'Baga Mboteni [baga1276][bgm]-l-':1,972,critically endangered
False,6,0,0,,89,8459,bfy,bagh1251,{},24.6837,language,87.4994,,Bagheli,"('Banapari [bana1282]':1,'Gahore [gaho1238]':1,'Godwani [godw1242]':1,'Ojhi [ojhi1238]':1,'Sonpari [sonp1238]':1,'Tirhari [tirh1246]':1)'Bagheli [bagh1251][bfy]-l-':1",11177,safe
False,0,0,0,,10,7695,fui,bagi1244,{},8.81656,language,18.3467,,Bagirmi Fulfulde,'Bagirmi Fulfulde [bagi1244][fui]-l-':1,10332,safe
False,4,0,0,,362,9427,bmi,bagi1246,{},11.52392,language,14.769495,,Bagirmi,"('Bangri [bang1360]':1,'Dam [damm1238]':1,'Gol [goll1238]':1,'Kibar [kiba1246]':1)'Bagirmi [bagi1246][bmi]-l-':1",12140,safe
False,2,0,0,,10,18686,bqg,bago1245,{},8.52697,language,1.41214,,Bago-Kusuntu,"('Bago [bago1246]':1,'Kusuntu [kusu1251]':1)'Bago-Kusuntu [bago1245][bqg]-l-':1",20100,safe
False,0,0,0,,89,14023,bgq,bagr1243,{},28.6036,language,71.453,,Bagri,'Bagri [bagr1243][bgq]-l-':1,16254,safe
False,0,0,0,,37,37,NOCODE_Bagua,bagu1249,{},,language,,,Bagua,'Bagua [bagu1249]-l-':1,565,safe
False,0,0,0,,159,2494,bqb,bagu1251,{},-1.98844,language,137.914,,Bagusa,'Bagusa [bagu1251][bqb]-l-':1,4288,safe
False,0,0,0,,50,5565,bpi,bagu1252,{},-5.07778,language,145.632,,Bagupi,'Bagupi [bagu1252][bpi]-l-':1,8122,definitely endangered
False,1,0,0,,371,7069,kva,bagv1239,{},42.3966,language,46.1041,,Bagvalal,('Tlisi [tlis1238]':1)'Bagvalal [bagv1239][kva]-l-':1,9468,definitely endangered
False,0,0,0,,23,3563,yha,baha1256,{},23.0105,language,104.449,,Baha Buyang,'Baha Buyang [baha1256][yha]-l-':1,5417,severely endangered
False,0,0,0,,21,10579,bhv,baha1257,{},0.30801,language,115.332,,Bahau,'Bahau [baha1257][bhv]-l-':1,13374,safe
False,0,0,0,,137,1209,bdw,baha1258,{},-3.10628,language,132.637,,Baham,'Baham [baha1258][bdw]-l-':1,2363,safe
False,0,0,0,,376,12218,abv,baha1259,{},26.223615,language,50.580811,,Baharna Arabic,'Baharna Arabic [baha1259][abv]-l-':1,14783,safe
False,0,0,0,,89,22852,bah,baha1260,{},25.032149,language,-77.390587,,Bahamas Creole English,'Bahamas Creole English [baha1260][bah]-l-':1,23047,safe
True,0,0,0,,120,120,,baha1262,{},,language,,,Bahau River Kenyah,'Bahau River Kenyah [baha1262][bwv]-l-':1,1076,safe
False,5,0,0,,151,8952,bhj,bahi1252,{},27.3323,language,86.3949,,Bahing,"('Banenge [bane1244]':1,'Dobo Lo [dobo1243]':1,'Namber Sacha [namb1290]':1,'Proca Lo [proc1238]':1,'Rokhung [rokh1238]':1)'Bahing [bahi1252][bhj]-l-':1",11697,definitely endangered
False,0,0,0,,142,4110,bjh,bahi1254,{},-4.55527,language,142.832,,Bahinemo,'Bahinemo [bahi1254][bjh]-l-':1,6145,safe
False,7,0,0,,143,6227,bdq,bahn1262,{},14.0476,language,108.471,,Bahnar,"('Alakong [alak1252]':1,'Bahnar Bonom [bahn1263]':1,'Golar {Austroasiatic} [gola1254]':1,'Jolong [jolo1240]':1,'Kontum [kont1244]':1,'Krem [krem1240]':1,'Tolo [tolo1253]':1)'Bahnar [bahn1262][bdq]-l-':1",8730,safe
False,0,0,0,,21,16036,bsu,baho1237,{},-2.22572,language,121.707,,Bahonsuai,'Bahonsuai [baho1237][bsu]-l-':1,18143,definitely endangered
False,0,0,0,,162,162,bbf,baib1251,{},-3.42672,language,141.345,,Baibai,'Baibai [baib1251][bbf]-l-':1,1281,safe
False,0,0,0,,10,17129,bdj,baii1251,{},7.57221,language,26.48246,,Bai,'Bai [baii1251][bdj]-l-':1,18735,definitely endangered
False,3,0,0,,21,13142,bkx,baik1238,{},-9.32991,language,124.256,,Baikeno,"('Kais Metan [kais1241]':1,'Tai Boko [taib1241]':1,'Uis Tasae [uist1237]':1)'Baikeno [baik1238][bkx]-l-':1",15748,safe
False,3,0,0,,151,9059,bqh,baim1244,{},33.1001,language,103.952,,Baima,"('Northern Baima [nort2706]':1,'Southern Baima [sout2713]':1,'Western Baima [west2412]':1)'Baima [baim1244][bqh]-l-':1",11893,vulnerable
False,0,0,0,,50,5565,bmx,baim1245,{},-5.18943,language,145.606,,Baimak,'Baimak [baim1245][bmx]-l-':1,8120,safe
False,0,0,0,,50,3692,NOCODE_Bai-Maclay,baim1246,{},,language,,,Bai-Maclay,'Bai-Maclay [baim1246]-l-':1,5607,extinct
False,0,0,0,,10,5236,bab,bain1259,{},12.3128,language,-16.0586,,Bainounk-Gujaher,'Bainounk-Gujaher [bain1259][bab]-l-':1,7711,safe
True,0,0,0,,120,120,bcb,bain1260,{},12.5053,language,-15.9969,,Bainouk-Samik,'Bainouk-Samik [bain1260][bcb]-l-':1,824,severely endangered
False,2,0,0,,10,5236,bcz,bain1261,{},12.8672,language,-16.229,,Bainouk-Gunyaamolo-Gutobor,"('Gujaaxet [guja1254]':1,'Gunyamoolo [guny1242]':1)'Bainouk-Gunyaamolo-Gutobor [bain1261][bcz]-l-':1",7712,vulnerable
False,0,0,0,,10,3446,fah,bais1242,{},7.38023,language,10.7684,,Baissa Fali,'Baissa Fali [bais1242][fah]-l-':1,5181,safe
False,0,0,0,,376,16755,bsw,bais1246,{},6.44892,language,37.7681,,Baiso,'Baiso [bais1246][bsw]-l-':1,18608,definitely endangered
False,0,0,0,,89,22584,bjs,baja1265,{},13.1365,language,-59.5346,,Bajan,'Bajan [baja1265][bjs]-l-':1,22845,safe
False,0,0,0,,89,16358,bjm,baje1238,{},33.9498,language,42.9867,,Bajelani,'Bajelani [baje1238][bjm]-l-':1,18358,definitely endangered
False,0,0,0,,10,18733,bkc,baka1272,{},2.16013,language,13.7804,,Baka (Cameroon),'Baka {Cameroon} [baka1272][bkc]-l-':1,20127,safe
False,6,0,0,,10,20350,bqz,baka1273,{},4.79991,language,9.80402,,Bakaka,"('Babong [babo1241]':1,'Bafun [bafu1245]':1,'Balondo [balo1262]':1,'Baneka [bane1245]':1,'Manehas [mane1262]':1,'Nuclear Bakaka [nucl1402]':1)'Bakaka [baka1273][bqz]-l-':1",21501,safe
False,0,0,0,,362,3061,bdh,baka1274,{},4.65943,language,29.59,,Baka (Sudan),'Baka {Sudan} [baka1274][bdh]-l-':1,4813,safe
False,0,0,0,,374,1703,bkq,baka1277,{},-14.2628,language,-54.7034,,Bakairí,'Bakairí [baka1277][bkq]-l-':1,3174,vulnerable
False,4,0,0,,89,14122,bqi,bakh1245,{},32.0163,language,49.7713,,Bakhtiari,"('Charlang [char1266]':1,'Chelgerd [chel1241]':1,'Haft-Lang [haft1238]':1,'Kuhrang [kuhr1238]':1)'Bakhtiari [bakh1245][bqi]-l-':1",16342,safe
False,0,0,0,,21,19501,bki,baki1244,{},-16.7096,language,168.165,,Baki,'Baki [baki1244][bki]-l-':1,20872,vulnerable
False,7,0,0,,10,15473,bkh,bako1249,{},3.56518,language,9.99905,,Bakoko,"('Adie [adie1238]':1,'Bisoo [biso1242]':1,'Mbang [mban1266]':1,'Yabyang [yaby1238]':1,'Yakalak [yaka1273]':1,'Yapoma [yapo1244]':1,'Yassuku [yass1240]':1)'Bakoko [bako1249][bkh]-l-':1",17395,safe
False,0,0,0,,10,17401,kme,bako1250,{},4.43654,language,8.97387,,Bakole,'Bakole [bako1250][kme]-l-':1,19024,critically endangered
False,0,0,0,,10,7537,bbs,bakp1238,{},5.26756,language,8.26321,,Bakpinka,'Bakpinka [bakp1238][bbs]-l-':1,10073,critically endangered
False,2,0,0,,21,7853,bkr,baku1263,{},-1.98842,language,114.77,,Bakumpai,"('Mengkatip [meng1268]':1,'Nuclear Bakumpai [nucl1555]':1)'Bakumpai [baku1263][bkr]-l-':1",10564,safe
True,0,0,0,,120,120,,baku1265,{},,language,,,Bakung Kenyah,'Bakung Kenyah [baku1265][boc]-l-':1,1041,safe
False,5,0,0,,10,5217,bjw,bakw1243,{},5.23123,language,-6.51077,,Bakwé,"('Dafa [dafa1242]':1,'Defa [defa1250]':1,'Deple [depl1238]':1,'Nigagba [niga1242]':1,'Nyinagbi [nyin1249]':1)'Bakwé [bakw1243][bjw]-l-':1",7668,safe
False,4,0,0,,10,5243,ble,bala1301,{},11.8203,language,-15.3221,,Balanta-Kentohe,"('Fora [fora1244]':1,'Kantohe [kant1248]':1,'Mane [mane1239]':1,'Naga {Balanta} [naga1400]':1)'Balanta-Kentohe [bala1301][ble]-l-':1",7720,safe
False,2,0,0,,10,5243,bjt,bala1302,{},12.5382,language,-15.6658,,Balanta-Ganja,"('Fganja [fgan1238]':1,'Fjaalib [fjaa1238]':1)'Balanta-Ganja [bala1302][bjt]-l-':1",7719,safe
True,0,0,0,,120,120,blg,bala1306,{},1.33476,language,110.913,,Balau,'Balau [bala1306][blg]-l-':1,811,safe
False,0,0,0,,21,15818,blw,bala1310,{},17.0994,language,121.272,,Balangao,'Balangao [bala1310][blw]-l-':1,17882,safe
False,6,0,0,,21,13313,sse,bala1311,{},6.011614,language,121.686646,,Balangingi,"('Daongdung [daon1242]':1,'Kabinga'an [kabi1262]':1,'Lutangan [luta1238]':1,'Nuclear Balangingi [nucl1552]':1,'Sibuco-Vitali [sibu1254]':1,'Sibuguey [sibu1253]':1)'Balangingi [bala1311][sse]-l-':1",15875,safe
False,0,0,0,,21,10663,bls,bala1314,{},-0.05644,language,119.689,,Balaesang,'Balaesang [bala1314][bls]-l-':1,13510,definitely endangered
False,0,0,0,,21,10661,blz,bala1315,{},-0.86809,language,123.289,,Balantak,'Balantak [bala1315][blz]-l-':1,13506,safe
False,0,0,0,,21,17716,NOCODE_Balade,bala1316,{},-20.25,language,164.2,,Balade,'Balade [bala1316]-l-':1,19450,safe
False,0,0,0,,376,7156,bdn,bald1241,{},10.9078,language,14.4674,,Baldemu,'Baldemu [bald1241][bdn]-l-':1,9543,critically endangered
False,0,0,0,,10,12617,bcn,bali1245,{},8.81345,language,11.2952,,Bali (Nigeria),'Bali {Nigeria} [bali1245][bcn]-l-':1,15219,safe
False,4,0,0,,10,10186,bcp,bali1274,{},1.1807,language,26.5941,,Bali (Democratic Republic of Congo),"('Bafwandaka [bafw1242]':1,'Bakundumu [baku1261]':1,'Bekeni [beke1238]':1,'Bemili [bemi1238]':1)'Bali {Democratic Republic of Congo} [bali1274][bcp]-l-':1",12897,safe
False,3,0,0,,21,7887,ban,bali1278,{},-8.35714,language,115.075,,Balinese,"('Highland Bali [high1274]':1,'Lowland Bali [lowl1258]':1,'Nusa Penida [nusa1244]':1)'Balinese [bali1278][ban]-l-':1",10624,safe
False,0,0,0,,21,13429,mhp,bali1279,{},-8.35714,language,115.075,,Balinese Malay,'Balinese Malay [bali1279][mhp]-l-':1,15979,safe
False,10,0,0,,89,6003,rmn,balk1252,{},42.67,language,21.17,,Balkan Romani,"('Arlija [arli1238]':1,'Dzambazi [dzam1241]':1,'East Bulgarian Romani [east2313]':1,'Greek Romani [gree1277]':1,'Ironworker Romani [iron1243]':1,'Paspatian [pasp1238]':1,'Tinners Romani [tinn1238]':1,'Tinsmiths [tins1238]':1,'Ursári [ursa1238]':1,'Zargari [zarg1238]':1)'Balkan Romani [balk1252][rmn]-l-':1",8463,definitely endangered
False,7,0,0,,118,8542,bgx,balk1254,{},41.170545,language,24.44567,,Balkan Gagauz Turkish,"('Gajol [gajo1239]':1,'Gerlovo Turks [gerl1239]':1,'Karamanli {Balkan Gagauz} [kara1468]':1,'Kyzylbash [kyzy1245]':1,'Surguch [surg1247]':1,'Tozluk Turks [tozl1239]':1,'Yuruk [yuru1261]':1)'Balkan Gagauz Turkish [balk1254][bgx]-l-':1",11316,definitely endangered
False,4,0,0,,10,22305,biz,balo1261,{},0.93777,language,18.1266,,Loi-Likila,"('Dzamba [dzam1242]':1,'Loi {Congo} [loii1242]':1,'Makutu [maku1274]':1,'Mampoko [mamp1245]':1)'Loi-Likila [balo1261][biz]-l-':1",22766,safe
False,0,0,0,,10,12932,bqo,balo1264,{},6.12552,language,9.69365,,Balo,'Balo [balo1264][bqo]-l-':1,15528,safe
False,7,0,0,,89,8461,rml,balt1257,{},60.0,language,38.0,,Baltic Romani,"('Estonian Romani [esto1257]':1,'Latvian Romani [latv1250]':1,'Lithuanian Romani [lith1252]':1,'North Russian Romani [nort2655]':1,'Polish Romani [poli1261]':1,'White Russia Romani [whit1260]':1,'White Russian Romani [whit1261]':1)'Baltic Romani [balt1257][rml]-l-':1",11188,definitely endangered
False,0,0,0,,151,11900,bft,balt1258,{},34.4491,language,77.2859,,Balti,'Balti [balt1258][bft]-l-':1,14617,vulnerable
False,2,0,0,,21,17656,blq,balu1257,{},-2.5604,language,147.282,,Paluai,"('Baluan [balu1258]':1,'Pam [pamm1243]':1)'Paluai [balu1257][blq]-l-':1",19315,safe
False,0,0,0,,193,1332,bog,bama1249,{},12.651,language,-8.00136,,Langue de Signes Malienne,'Langue de Signes Malienne [bama1249][bog]-l-':1,2610,safe
False,0,0,0,,10,19170,bbq,bama1251,{},5.91327,language,10.4567,,Bamali,'Bamali [bama1251][bbq]-l-':1,20510,safe
False,2,0,0,,198,198,myf,bamb1262,{},9.82554,language,34.6522,,Bambassi,"('Kere {Ethiopia} [kere1282]':1,'Nuclear Bambassi [nucl1341]':1)'Bambassi [bamb1262][myf]-l-':1",1337,definitely endangered
False,0,0,0,,10,19170,bmo,bamb1265,{},5.861,language,10.544,,Bambalang,'Bambalang [bamb1265][bmo]-l-':1,20507,safe
False,2,0,0,,10,17506,baw,bamb1266,{},6.10821,language,10.2233,,Bambili-Bambui,"('Bambili [bamb1267]':1,'Bambui [bamb1268]':1)'Bambili-Bambui [bamb1266][baw]-l-':1",19173,safe
False,7,0,0,,122,16410,bam,bamb1269,{},12.0401,language,-9.98949,,Bambara,"('Beledugu [bele1249]':1,'Ganadugu [gana1273]':1,'San [sann1238]':1,'Segou [sego1238]':1,'Sikasso [sika1260]':1,'Somono [somo1238]':1,'Standard Bambara [stan1305]':1)'Bambara [bamb1269][bam]-l-':1",18421,safe
False,7,0,0,,21,10626,ptu,bamb1270,{},-3.02759,language,119.201,,Bambam,"('Bambam Hulu [bamb1271]':1,'Bumal [buma1246]':1,'Issilita' [issi1237]':1,'Matangnga [mata1286]':1,'Mehalaan [meha1242]':1,'Pakkau [pakk1243]':1,'Salu Mokanam [salu1250]':1)'Bambam [bamb1270][ptu]-l-':1",13458,safe
False,0,0,0,,10,17505,bce,bame1260,{},5.77049,language,10.3302,,Bamenyam,'Bamenyam [bame1260][bce]-l-':1,19168,safe
False,0,0,0,,10,19170,bax,bamu1253,{},5.49017,language,10.8477,,Bamun,'Bamun [bamu1253][bax]-l-':1,20509,safe
False,0,0,0,,10,17506,bqt,bamu1254,{},5.87292,language,10.3537,,Bamukumbit,'Bamukumbit [bamu1254][bqt]-l-':1,19177,safe
False,0,0,0,,10,15533,bvm,bamu1256,{},6.00203,language,10.5127,,Bamunka,'Bamunka [bamu1256][bvm]-l-':1,17519,safe
False,5,0,0,,258,258,bcf,bamu1257,{},-7.93818,language,143.545,,Bamu,"('Gama [gama1254]':1,'Lower Bamu [lowe1421]':1,'Nuhiro [nuhi1238]':1,'Sisiame [sisi1249]':1,'Upper Bamu [uppe1434]':1)'Bamu [bamu1257][bcf]-l-':1",1452,safe
False,0,0,0,,10,19122,bmg,bamw1238,{},2.16773,language,19.1644,,Bamwe,'Bamwe [bamw1238][bmg]-l-':1,20445,safe
False,3,0,0,,21,20948,bjx,bana1288,{},17.5643,language,121.05,,Banao Itneg,"('Banao Pikekj [bana1289]':1,'Gubang Itneg [guba1246]':1,'Malibcong Banao [mali1281]':1)'Banao Itneg [bana1288][bjx]-l-':1",21872,safe
False,0,0,0,,,,byz,bana1292,{},-4.56615,language,144.329,,Banaro,'Banaro [bana1292][byz]-l-':1,266,safe
False,2,0,0,,376,9555,bcw,bana1305,{},10.3535,language,13.6131,,Bana,"('Gamboura [gamb1258]':1,'Gili [gili1246]':1)'Bana [bana1305][bcw]-l-':1",12290,safe
True,0,0,0,,120,120,,bana1306,{},,language,,,Banawá,'Banawá [bana1306][bnh]-l-':1,1094,safe
True,0,0,0,,120,120,bjd,band1337,{},-30.0771,language,143.282,,Bandjigali,'Bandjigali [band1337][bjd]-l-':1,944,safe
False,3,0,0,,66,3811,bdy,band1339,{},-28.3458,language,152.859,,Yugambeh-Bandjalang,"('Gidabal [gida1240][gih]':1,('Minjungbal [minj1242][xjb]':1)'Yugumbir [yugu1249]':1)'Yugambeh-Bandjalang [band1339][bdy]-l-':1",5756,severely endangered
False,3,0,0,,10,10352,bqj,band1340,{},12.5258,language,-16.4245,,Bandial,"('Affiniam [affi1239]':1,'Elun [elun1241]':1,'Nuclear Bandial [nucl1346]':1)'Bandial [band1340][bqj]-l-':1",13071,vulnerable
False,5,0,0,,10,12600,bqk,band1342,{},7.32924,language,23.0108,,Banda-Mbrès,"('Buka {Banda-Mbres} [buka1254]':1,'Mbre {Banda-Mbres} [mbre1245]':1,'Moruba [moru1251]':1,'Sabanga [saba1261]':1,'Wada [wada1260]':1)'Banda-Mbrès [band1342][bqk]-l-':1",15185,safe
False,14,0,0,,10,12600,bpd,band1343,{},6.63889,language,22.7568,,Banda-Banda,"('Bereya [bere1248]':1,'Buru {Banda-Banda} [buru1297]':1,'Gbaga-South [gbag1255]':1,'Gbambiya [gbam1238]':1,'Govoro [govo1238]':1,'Hai [haii1241]':1,'Ka [kaaa1238]':1,'Mbi [mbii1238]':1,'Ndi [ndii1240]':1,'Ngalabo [ngal1297]':1,'Ngola {Banda-Banda} [ngol1244]':1,'Nuclear Banda-Banda [nucl1365]':1,'Vidiri [vidi1238]':1,'Wundu [wund1238]':1)'Banda-Banda [band1343][bpd]-l-':1",15182,safe
False,5,0,0,,10,12600,liy,band1344,{},6.21563,language,20.9827,,Banda-Bambari,"('Gbende [gben1241]':1,'Joto [joto1238]':1,'Linda [lind1246]':1,'Ndokpa [ndok1253]':1,'Ngapo [ngap1238]':1)'Banda-Bambari [band1344][liy]-l-':1",15184,safe
False,6,0,0,,10,12600,bfl,band1345,{},8.03339,language,23.9021,,Banda-Ndélé,"('Banda-Kpaya [band1347]':1,'Junguru [jung1239]':1,'Ngao [ngao1244]':1,'Ngbala [ngba1288]':1,'Nuclear Banda-Ndélé [band1346]':1,'Tangbago [tang1341]':1)'Banda-Ndélé [band1345][bfl]-l-':1",15186,safe
False,0,0,0,,10,9963,yaj,band1348,{},3.95763,language,16.5907,,Banda-Yangere,'Banda-Yangere [band1348][yaj]-l-':1,12599,safe
False,6,0,0,,122,11385,bza,band1352,{},7.73729,language,-10.1684,,Bandi,"('Hasala [hasa1248]':1,'Hembeh [hemb1243]':1,'Lukasa [luka1238]':1,'Tahamba [taha1240]':1,'Wawana [wawa1247]':1,'Wulukoha [wulu1242]':1)'Bandi [band1352][bza]-l-':1",14256,safe
False,0,0,0,,21,16007,bpq,band1353,{},-4.55565,language,129.905,,Banda Malay,'Banda Malay [band1353][bpq]-l-':1,18114,safe
False,2,0,0,,21,13131,bnd,band1355,{},-5.42138,language,133.142,,Banda (Indonesia),"('Elat [elat1240]':1,'Eli [elii1237]':1)'Banda {Indonesia} [band1355][bnd]-l-':1",15727,safe
False,0,0,0,,66,5788,bjb,bang1339,{},-33.3036,language,136.079,,Banggarla,'Banggarla [bang1339][bjb]-l-':1,8247,extinct
False,2,0,0,,10,17125,bbe,bang1345,{},3.39956,language,28.3138,,Bangba,"('Kopa {Bangba} [kopa1246]':1,'Tora {Bangba} [tora1258]':1)'Bangba [bang1345][bbe]-l-':1",18726,safe
False,2,0,0,,10,7486,bgf,bang1347,{},2.18716,language,14.7506,,Ngombe-Bangandu,"('Baagato [baag1244]':1,'North Bangato [nort2776]':1)'Ngombe-Bangandu [bang1347][bgf]-l-':1",9990,safe
False,2,0,0,,10,15147,bsj,bang1348,{},9.57157,language,11.2022,,Bangwinji,"('Kaalo [kaal1239]':1,'Naaban [naab1242]':1)'Bangwinji [bang1348][bsj]-l-':1",17052,safe
False,6,0,0,,10,19079,bnx,bang1350,{},-4.31464,language,27.2438,,Bangubangu,"('Hombo [homb1238]':1,'Kasenga [kase1254]':1,'Mikebwe [mike1238]':1,'Nonda [nond1239]':1,'Nuclear Bangubangu [nucl1386]':1,'Sanzi [sanz1244]':1)'Bangubangu [bang1350][bnx]-l-':1",20391,safe
False,0,0,0,,10,22992,bxg,bang1353,{},3.3466,language,28.04453,,Bangala,'Bangala [bang1353][bxg]-l-':1,23108,safe
False,0,0,0,,10,22767,bni,bang1354,{},-0.87437,language,17.227,,Bangi,'Bangi [bang1354][bni]-l-':1,22991,safe
False,0,0,0,,10,19170,bgj,bang1356,{},6.0125,language,10.667,,Bangolan,'Bangolan [bang1356][bgj]-l-':1,20506,safe
False,0,0,0,,,,dba,bang1363,{},14.8116,language,-3.77092,,Bangime,'Bangime [bang1363][dba]-l-':1,199,safe
False,0,0,0,,21,15973,mfb,bang1365,{},-1.73288,language,105.897,,Bangka,'Bangka [bang1365][mfb]-l-':1,18066,safe
False,2,0,0,,21,10661,bgz,bang1368,{},-1.58305,language,123.171,,Banggai,"('East Banggai [east2492]':1,'West Banggai [west2570]':1)'Banggai [bang1368][bgz]-l-':1",13505,safe
False,0,0,0,,151,1248,NOCODE_Bangru,bang1369,{},27.95,language,93.15,,Bangru,'Bangru [bang1369]-l-':1,2443,safe
False,2,0,0,,79,3913,bvv,bani1254,{},5.26123,language,-67.5633,,Avane,"('Baniva-Avani [nucl1671]':1,'Quirruba [quir1245]':1)'Avane [bani1254][bvv]-l-':1",5870,extinct
False,2,0,0,,79,10972,bwi,bani1255,{},2.17859,language,-67.7704,,Baniwa do Icana,"('Hohodené [hoho1238]':1,'Siusy-Tapuya [sius1255]':1)'Baniwa do Icana [bani1255][bwi]-l-':1",13709,vulnerable
False,2,0,0,,21,20990,bjn,banj1239,{},0.747105,language,115.79,,Banjar,"('Hulu [hulu1245]':1,'Kuala [kual1252]':1)'Banjar [banj1239][bjn]-l-':1",21915,safe
